[
  {
    "name":"현대빌딩 본관 지하2층",
    "lat":37.5774734174,
    "lng":126.987519657
  },
  {
    "name":"대동세무고등학교 본관 지하1층",
    "lat":37.5810562855,
    "lng":126.9874826002
  },
  {
    "name":"서울농학교 청각언어훈련센터 지하1층",
    "lat":37.5841371852,
    "lng":126.9688414065
  },
  {
    "name":"서울맹학교 초등교육관 지하1층",
    "lat":37.5841996458,
    "lng":126.9682265993
  },
  {
    "name":"청운효자동주민센터 지하1층",
    "lat":37.5840462179,
    "lng":126.9706143614
  },
  {
    "name":"유림회관 지하1층",
    "lat":37.585559515,
    "lng":126.9968402875
  },
  {
    "name":"구기터널",
    "lat":37.6087899509,
    "lng":126.9555378809
  },
  {
    "name":"서울대학교병원 융합의학기술원(정림빌딩)지하2층 강당",
    "lat":37.5759407624,
    "lng":127.002639633
  },
  {
    "name":"창신2동주민센터 지하1층",
    "lat":37.5744012829,
    "lng":127.0107890713
  },
  {
    "name":"창신2동 동대문맨션 지하1층",
    "lat":37.5724716395,
    "lng":127.0107766636
  },
  {
    "name":"우리은행창신동지점 지하1층",
    "lat":37.5722097214,
    "lng":127.0122783359
  },
  {
    "name":"지하철3호선 안국역 지하1~3층 대합실 승강장",
    "lat":37.5767745661,
    "lng":126.9860859441
  },
  {
    "name":"극동문제연구소 통일관 지하2층 주차장",
    "lat":37.586652413,
    "lng":126.9835379614
  },
  {
    "name":"삼청동주민센터 지하1층 헬스장",
    "lat":37.5849958796,
    "lng":126.9819533875
  },
  {
    "name":"한국방송통신대학교 본관 지하1층~3층 주차장",
    "lat":37.5787310751,
    "lng":127.0024691612
  },
  {
    "name":"KT혜화지사 지하1층 체력단련실",
    "lat":37.5771282229,
    "lng":127.0019755102
  },
  {
    "name":"이화동주민센터 지하1층",
    "lat":37.5769252332,
    "lng":127.0043411631
  },
  {
    "name":"서울지방국세청 지하2~4층",
    "lat":37.5740194657,
    "lng":126.9795382176
  },
  {
    "name":"삼환빌딩 지하1~2층",
    "lat":37.5769362088,
    "lng":126.9889218241
  },
  {
    "name":"대림빌딩 지하1~2층",
    "lat":37.5735029657,
    "lng":126.9787766134
  },
  {
    "name":"종로세무서 지하1층",
    "lat":37.5739869364,
    "lng":126.9889337755
  },
  {
    "name":"한국무역보험공사빌딩 지하2~4층",
    "lat":37.5698974549,
    "lng":126.9789611079
  },
  {
    "name":"연합뉴스빌딩 지하2~3층",
    "lat":37.5745553725,
    "lng":126.9804058094
  },
  {
    "name":"SK건설빌딩 지하2~4층",
    "lat":37.5729031706,
    "lng":126.984451171
  },
  {
    "name":"교보생명빌딩 지하2~3층",
    "lat":37.5705629898,
    "lng":126.9777963217
  },
  {
    "name":"태화빌딩 지하1~3층",
    "lat":37.5721369896,
    "lng":126.9847691377
  },
  {
    "name":"SC제일은행본점 지하2~4층",
    "lat":37.5706113565,
    "lng":126.9825705684
  },
  {
    "name":"이마빌딩 지하2~3층",
    "lat":37.5740145632,
    "lng":126.978771964
  },
  {
    "name":"동십자각지하도 지하1층",
    "lat":37.5760950948,
    "lng":126.979412005
  },
  {
    "name":"지하철1호선 종각역 대합실 승강장 지하1~2층",
    "lat":37.5702869921,
    "lng":126.9836103791
  },
  {
    "name":"종로2가 지하상가 지하1층",
    "lat":37.5702784401,
    "lng":126.9856757458
  },
  {
    "name":"석탄회관빌딩 지하2~3층",
    "lat":37.5728528595,
    "lng":126.9801836233
  },
  {
    "name":"코리안리재보험빌딩 지하1~3층",
    "lat":37.5733108659,
    "lng":126.9801252173
  },
  {
    "name":"광화문우체국 지하1층",
    "lat":37.5700139173,
    "lng":126.9780542555
  },
  {
    "name":"종로경찰서 지하1층",
    "lat":37.5759379682,
    "lng":126.9845920964
  },
  {
    "name":"피카디리플러스 지하5~7층",
    "lat":37.5708953194,
    "lng":126.9916315483
  },
  {
    "name":"우리은행 종로4가금융센터 지하1층",
    "lat":37.5705078954,
    "lng":126.9984137477
  },
  {
    "name":"지하철3호선 종로3가역 대합실 승강장 지하1~4층",
    "lat":37.5711708208,
    "lng":126.9920424028
  },
  {
    "name":"지하철1호선 종로3가역 대합실 승강장 지하1~2층",
    "lat":37.5705166738,
    "lng":126.9920003317
  },
  {
    "name":"서울혜화경찰서 지하1층",
    "lat":37.572345469,
    "lng":126.998651071
  },
  {
    "name":"KT광화문빌딩 지하1~3층",
    "lat":37.5721838582,
    "lng":126.9775993061
  },
  {
    "name":"인의빌딩 지하2~4층",
    "lat":37.5725082657,
    "lng":126.998207882
  },
  {
    "name":"국일관 드림팰리스 지하3~6층",
    "lat":37.5697354292,
    "lng":126.9896415689
  },
  {
    "name":"종묘공영주차장 지하2~5층",
    "lat":37.5709802173,
    "lng":126.9951311023
  },
  {
    "name":"종로4가지하상가 지하1층",
    "lat":37.57096319,
    "lng":126.9990265154
  },
  {
    "name":"청운효자동자치회관 지하1층",
    "lat":37.5817287804,
    "lng":126.9692090057
  },
  {
    "name":"사직공원지하보도 지하1층",
    "lat":37.5755220493,
    "lng":126.9682978143
  },
  {
    "name":"지하철3호선 경복궁역 대합실 승강장",
    "lat":37.5757880682,
    "lng":126.9731591381
  },
  {
    "name":"광화문사거리 지하1층 지하중앙보도",
    "lat":37.571650122,
    "lng":126.9771563891
  },
  {
    "name":"세종문화회관 지하1층 전시실",
    "lat":37.571650122,
    "lng":126.9771563891
  },
  {
    "name":"종로구문화체육센터 지하1~2층",
    "lat":37.5742790372,
    "lng":126.9644923916
  },
  {
    "name":"세종문화회관 지하2층 세종·충무공이야기 전시관",
    "lat":37.5720098878,
    "lng":126.9763070647
  },
  {
    "name":"세양빌딩 지하2층",
    "lat":37.5741787045,
    "lng":126.973001539
  },
  {
    "name":"적선현대빌딩 지하주차장 2~4층",
    "lat":37.5755708217,
    "lng":126.9733077881
  },
  {
    "name":"광화문플래티넘 빌딩  지하2~3층",
    "lat":37.5744258543,
    "lng":126.9734535585
  },
  {
    "name":"세종로공영주차장 지하1~5층",
    "lat":37.5732789956,
    "lng":126.9762782799
  },
  {
    "name":"도렴빌딩 지하1~2층",
    "lat":37.5736759688,
    "lng":126.9742872529
  },
  {
    "name":"미도파광화문빌딩 지하2층",
    "lat":37.5714857643,
    "lng":126.9736936086
  },
  {
    "name":"동원빌딩  지하1층",
    "lat":37.5717156382,
    "lng":126.9724430128
  },
  {
    "name":"로얄빌딩 지하2층",
    "lat":37.5720348413,
    "lng":126.9744973679
  },
  {
    "name":"현대해상본사빌딩 지하2층",
    "lat":37.57094656,
    "lng":126.9763505397
  },
  {
    "name":"세종빌딩 지하1층",
    "lat":37.5717517122,
    "lng":126.9733656913
  },
  {
    "name":"시티빌딩 지하1층",
    "lat":37.5690584465,
    "lng":126.970675496
  },
  {
    "name":"자하문터널",
    "lat":37.5926583283,
    "lng":126.9643748939
  },
  {
    "name":"무악동주민센터 지하1층",
    "lat":37.5760621183,
    "lng":126.9580856123
  },
  {
    "name":"무악현대아파트 지하1층",
    "lat":37.5747631669,
    "lng":126.9593421214
  },
  {
    "name":"무악현대임대아파트 지하2층",
    "lat":37.5748224763,
    "lng":126.9586100698
  },
  {
    "name":"독립문초등학교 지하1층",
    "lat":37.5737936028,
    "lng":126.9604856175
  },
  {
    "name":"지하철5호선 서대문역 대합실 승강장",
    "lat":37.5659882565,
    "lng":126.9667035695
  },
  {
    "name":"강북삼성병원",
    "lat":37.5681282716,
    "lng":126.9685923947
  },
  {
    "name":"서대문장로교회",
    "lat":37.5695031818,
    "lng":126.9653987545
  },
  {
    "name":"교남동주민센터 지하1층",
    "lat":37.5718507589,
    "lng":126.96191187
  },
  {
    "name":"종로구민회관 지하2층",
    "lat":37.5734269268,
    "lng":127.0146928094
  },
  {
    "name":"창신성결교회 지하1층",
    "lat":37.5736840108,
    "lng":127.0118341013
  },
  {
    "name":"서울명신초등학교 지하1층",
    "lat":37.5821044521,
    "lng":127.0148189523
  },
  {
    "name":"서일문화예술고등학교 지하1층",
    "lat":37.5796636318,
    "lng":127.0130512446
  },
  {
    "name":"지하철6호선 창신역 대합실 승강장(지하 1,4층)",
    "lat":37.5800303984,
    "lng":127.0152959649
  },
  {
    "name":"숭인1동주민센터 지하2층",
    "lat":37.5778054728,
    "lng":127.0155448361
  },
  {
    "name":"가톨릭대학교성신교정 지하1층",
    "lat":37.586425542,
    "lng":127.0032352677
  },
  {
    "name":"혜성교회, 혜성유치원 지하1층",
    "lat":37.5905725653,
    "lng":127.0010018932
  },
  {
    "name":"명륜교회 지하1층",
    "lat":37.5863574658,
    "lng":126.9999839152
  },
  {
    "name":"명륜프라자 지하2~3층",
    "lat":37.5844127389,
    "lng":127.0004806017
  },
  {
    "name":"동원빌딩, 한성대학교에듀센터 지하1층",
    "lat":37.5838836018,
    "lng":126.9999880311
  },
  {
    "name":"광원빌딩 지하1층",
    "lat":37.5822788559,
    "lng":126.9982065327
  },
  {
    "name":"지하철4호선 혜화역 대합실 승강장",
    "lat":37.5818472837,
    "lng":127.0020067968
  },
  {
    "name":"혜화동씨티밸리 지하3층",
    "lat":37.5843071107,
    "lng":127.0018639116
  },
  {
    "name":"지하철1호선 종로5가역 대합실 승강장 지하2층",
    "lat":37.5708278887,
    "lng":127.0016237267
  },
  {
    "name":"동대문전철역지하상가 지하1층",
    "lat":37.5703780425,
    "lng":127.0093889498
  },
  {
    "name":"여전도회관 지하1층",
    "lat":37.5757573321,
    "lng":126.9997678584
  },
  {
    "name":"서울보증보험 지하2~5층",
    "lat":37.5734949909,
    "lng":127.0008597458
  },
  {
    "name":"삼양사 지하1층",
    "lat":37.5725624612,
    "lng":127.0015555844
  },
  {
    "name":"연강빌딩, 두산아트센터 지하1~5층",
    "lat":37.5718570603,
    "lng":127.0012706771
  },
  {
    "name":"현대그룹빌딩 지하1층",
    "lat":37.5755980344,
    "lng":127.000266035
  },
  {
    "name":"종오지하쇼핑센터 지하1층",
    "lat":37.5707577457,
    "lng":126.9999427727
  },
  {
    "name":"지하철1호선 동묘앞역 대합실 승강장 지하1층",
    "lat":37.5736726749,
    "lng":127.0173730562
  },
  {
    "name":"숭인상가아파트 지하1층",
    "lat":37.5721012637,
    "lng":127.020710192
  },
  {
    "name":"서진빌딩 지하1층",
    "lat":37.5736858104,
    "lng":127.0230655932
  },
  {
    "name":"진형빌딩 지하1층",
    "lat":37.5742024105,
    "lng":127.0202076941
  },
  {
    "name":"평창동주민센터 지하1층",
    "lat":37.6063278337,
    "lng":126.9683416707
  },
  {
    "name":"서울대학교병원 의학연구혁신센터 지하4층 주차장",
    "lat":37.5776623051,
    "lng":127.001874638
  },
  {
    "name":"금호팔레스빌딩 지하1~2층",
    "lat":37.57260822,
    "lng":127.0153769951
  },
  {
    "name":"시즌빌딩 지하2~5층",
    "lat":37.57174164,
    "lng":127.0154677319
  },
  {
    "name":"두산아파트 지하1~2층",
    "lat":37.574404236,
    "lng":127.0150989553
  },
  {
    "name":"지하철1호선 동대문역 대합실 승강장",
    "lat":37.5717487448,
    "lng":127.0112904887
  },
  {
    "name":"지하철4호선 동대문역 대합실 지하4층 승강장",
    "lat":37.5703780425,
    "lng":127.0093889498
  },
  {
    "name":"동신교회 지하1층",
    "lat":37.5707788619,
    "lng":127.0126780947
  },
  {
    "name":"북악터널",
    "lat":37.6119453792,
    "lng":126.9913642852
  },
  {
    "name":"지하철6호선 동묘앞역 대합실 승강장",
    "lat":37.5722001194,
    "lng":127.0157409412
  },
  {
    "name":"서울영천교회",
    "lat":37.5733711189,
    "lng":126.960246047
  },
  {
    "name":"성균관대학교 600주년기념관 지하2,3,4층",
    "lat":37.5849074187,
    "lng":126.9969488651
  },
  {
    "name":"인왕산아이파크아파트 주차장 지하2층",
    "lat":37.5761087101,
    "lng":126.9575398165
  },
  {
    "name":"지하철5호선 광화문역 지하1~3층 대합실 승강장",
    "lat":37.5716249337,
    "lng":126.9767679222
  },
  {
    "name":"종로청소년문화센터 지하1층",
    "lat":37.5905990414,
    "lng":126.9933769087
  },
  {
    "name":"두산위브파빌리온 지하2~3층",
    "lat":37.5723107078,
    "lng":126.9817338874
  },
  {
    "name":"GS건설, 그랑서울 지하2~7층",
    "lat":37.57044711,
    "lng":126.9811490011
  },
  {
    "name":"광화문역연결 청진지하공공보도",
    "lat":37.571650122,
    "lng":126.9771563891
  },
  {
    "name":"동아일보사 지하2~4층",
    "lat":37.5694775831,
    "lng":126.9777964152
  },
  {
    "name":"신교공영주차장 지하1층~4층",
    "lat":37.5839786091,
    "lng":126.970090157
  },
  {
    "name":"상명대학교 박물관 지하주차장",
    "lat":37.610400549,
    "lng":126.9763074414
  },
  {
    "name":"창진파크팰리스 지하1층",
    "lat":37.6070471782,
    "lng":126.9708075076
  },
  {
    "name":"서울세검정초등학교 지하2층",
    "lat":37.6031531085,
    "lng":126.9613670519
  },
  {
    "name":"상명대학교 미래백년관 지하2층~3층",
    "lat":37.6018205678,
    "lng":126.9549752438
  },
  {
    "name":"상명대학교 자하관 지하1층",
    "lat":37.6018205678,
    "lng":126.9549752438
  },
  {
    "name":"올림픽기념 국민생활관 지하1층",
    "lat":37.5900148536,
    "lng":126.9989839188
  },
  {
    "name":"종로청계힐스테이트아파트 지하1층",
    "lat":37.5758956353,
    "lng":127.021582111
  },
  {
    "name":"가회동주민센터 지하1~2층",
    "lat":37.5800661044,
    "lng":126.9848697371
  },
  {
    "name":"지하철3호선 독립문역 지하3층",
    "lat":37.5743798132,
    "lng":126.9578242378
  },
  {
    "name":"인왕산2차 아이파크아파트 지하1층",
    "lat":37.57608414,
    "lng":126.9591182525
  },
  {
    "name":"원서빌딩 지하주차장 1층",
    "lat":37.5792284373,
    "lng":126.9884350035
  },
  {
    "name":"경희궁롯데캐슬아파트 지하2층",
    "lat":37.5735096052,
    "lng":126.9594370741
  },
  {
    "name":"SK에코플랜트 수송스퀘어 지하2~6층",
    "lat":37.5747012074,
    "lng":126.9808903118
  },
  {
    "name":"삼성아파트 지하주차장 1~2층",
    "lat":37.6110228867,
    "lng":126.9785255318
  },
  {
    "name":"반얀트리클럽앤스파서울 지하1~2층",
    "lat":37.5511238169,
    "lng":127.0008557781
  },
  {
    "name":"3호선약수역지하철승강장",
    "lat":37.5546654973,
    "lng":127.0107423355
  },
  {
    "name":"서울역우체국앞지하보도",
    "lat":37.5575389058,
    "lng":126.9714441
  },
  {
    "name":"단암타워빌딩 지하1~2층",
    "lat":37.5586261494,
    "lng":126.975549439
  },
  {
    "name":"앰배서더호텔 지하1~2층",
    "lat":37.560118246,
    "lng":127.0025949165
  },
  {
    "name":"천수빌딩KEB하나은행 지하1층",
    "lat":37.5672849008,
    "lng":126.9894368576
  },
  {
    "name":"금세기빌딩 지하2~3층",
    "lat":37.5664541676,
    "lng":126.9793482564
  },
  {
    "name":"시청광장지하쇼핑센터",
    "lat":37.5659607617,
    "lng":126.9790877773
  },
  {
    "name":"을지로입구지하쇼핑센터",
    "lat":37.5661128497,
    "lng":126.9841529018
  },
  {
    "name":"3호선동대입구역지하철승강장",
    "lat":37.5590927678,
    "lng":127.0054297483
  },
  {
    "name":"선일빌딩3호선약수역지하철승강장",
    "lat":37.5550718005,
    "lng":127.0101049969
  },
  {
    "name":"을지로지하상가",
    "lat":37.5661636577,
    "lng":126.9875666416
  },
  {
    "name":"2호선을지로입구역지하철승강장",
    "lat":37.5660359123,
    "lng":126.9823594156
  },
  {
    "name":"신당지하쇼핑센터",
    "lat":37.5683285394,
    "lng":127.0196176619
  },
  {
    "name":"회현지하도상가",
    "lat":37.5604383086,
    "lng":126.9820613303
  },
  {
    "name":"조양빌딩신관 지하1~2층",
    "lat":37.5624754999,
    "lng":126.989311752
  },
  {
    "name":"한국은행앞지하보도",
    "lat":37.5616560805,
    "lng":126.9800970064
  },
  {
    "name":"롯데백화점 본점 지하주차장 2~7층",
    "lat":37.5646159989,
    "lng":126.9820647743
  },
  {
    "name":"삼성본관 지하2~3층",
    "lat":37.5623857115,
    "lng":126.9758540903
  },
  {
    "name":"대한상공회의소 지하3층",
    "lat":37.5604524668,
    "lng":126.9738934118
  },
  {
    "name":"프라자호텔 지하2층",
    "lat":37.5647578493,
    "lng":126.978179848
  },
  {
    "name":"2호선시청역지하철승강장",
    "lat":37.5635678379,
    "lng":126.9752685962
  },
  {
    "name":"소공지하쇼핑센터",
    "lat":37.5638549916,
    "lng":126.9796180111
  },
  {
    "name":"소공지하도상가",
    "lat":37.564906527,
    "lng":126.9788557868
  },
  {
    "name":"남대문로지하쇼핑센터",
    "lat":37.560859094,
    "lng":126.9773517897
  },
  {
    "name":"남대문앞지하보도",
    "lat":37.5608269647,
    "lng":126.9760652426
  },
  {
    "name":"4호선회현역지하철승강장",
    "lat":37.5585509983,
    "lng":126.9783017139
  },
  {
    "name":"부영빌딩 지하3층",
    "lat":37.561609027,
    "lng":126.9736473238
  },
  {
    "name":"남산입구지하보도",
    "lat":37.5593855176,
    "lng":126.9760697168
  },
  {
    "name":"서울역앞지하보도",
    "lat":37.5569279548,
    "lng":126.9725563985
  },
  {
    "name":"삼익패션타운 지하2~4층",
    "lat":37.5601442815,
    "lng":126.9788324089
  },
  {
    "name":"1호선시청역지하철승강장",
    "lat":37.5654718995,
    "lng":126.9769929799
  },
  {
    "name":"명동역지하철승강장",
    "lat":37.5609047054,
    "lng":126.9859111
  },
  {
    "name":"덕수궁앞지하보도",
    "lat":37.5673016403,
    "lng":126.9776981538
  },
  {
    "name":"3호선충무로역지하철승강장",
    "lat":37.5614376042,
    "lng":126.9955382333
  },
  {
    "name":"3호선을지로3가역지하철승강장",
    "lat":37.566243841,
    "lng":126.9902817977
  },
  {
    "name":"연세봉래빌딩 지하1~3층",
    "lat":37.5595110467,
    "lng":126.9727851073
  },
  {
    "name":"회현지하쇼핑센터",
    "lat":37.5604383086,
    "lng":126.9820613303
  },
  {
    "name":"명동지하쇼핑센터",
    "lat":37.5636370224,
    "lng":126.9820766416
  },
  {
    "name":"6호선버티고개역지하철승강장",
    "lat":37.5479435707,
    "lng":127.0069772635
  },
  {
    "name":"6호선신당역지하철승강장",
    "lat":37.5662443731,
    "lng":127.0161749483
  },
  {
    "name":"6호선약수역지하철승강장",
    "lat":37.5541244907,
    "lng":127.0102533013
  },
  {
    "name":"청구역지하철승강장",
    "lat":37.5602296502,
    "lng":127.0137595842
  },
  {
    "name":"을지로3구역지하쇼핑센터",
    "lat":37.5663834301,
    "lng":126.9926299737
  },
  {
    "name":"1호선서울역지하철승강장",
    "lat":37.5569279548,
    "lng":126.9725563985
  },
  {
    "name":"한국경제신문사 지하1~5층",
    "lat":37.5607041462,
    "lng":126.9676220733
  },
  {
    "name":"을지로4가역지하철승강장",
    "lat":37.5666100347,
    "lng":126.9978110428
  },
  {
    "name":"2호선을지로3가역지하철승강장",
    "lat":37.566243841,
    "lng":126.9902817977
  },
  {
    "name":"4호선충무로역지하철승강장",
    "lat":37.5614376042,
    "lng":126.9955382333
  },
  {
    "name":"묵정공원공영주차장 지하1~5층",
    "lat":37.5637158252,
    "lng":126.9997942862
  },
  {
    "name":"인현지하쇼핑센터",
    "lat":37.5641053079,
    "lng":126.9958609668
  },
  {
    "name":"중구청 지하1~3층",
    "lat":37.5638811041,
    "lng":126.9981803068
  },
  {
    "name":"쌍림빌딩 지하1층",
    "lat":37.5632139424,
    "lng":127.0035510958
  },
  {
    "name":"을지로4구역지하쇼핑센터",
    "lat":37.5668678856,
    "lng":127.0022931074
  },
  {
    "name":"동대문역사문화공원역지하철승강장",
    "lat":37.5656258662,
    "lng":127.0091545627
  },
  {
    "name":"청계5가지하쇼핑센터",
    "lat":37.5687707769,
    "lng":127.0021377115
  },
  {
    "name":"중구구민회관 지하1~3층",
    "lat":37.5684043185,
    "lng":127.0054609675
  },
  {
    "name":"2호선신당역지하철승강장",
    "lat":37.565668806,
    "lng":127.0195551484
  },
  {
    "name":"중구종합복지센터 지하1~2층",
    "lat":37.5651414385,
    "lng":127.0227951959
  },
  {
    "name":"에이피엠 지하2~3층",
    "lat":37.5678206682,
    "lng":127.0139127616
  },
  {
    "name":"삼성홈타운신당아파트 지하주차장 1층",
    "lat":37.5628029538,
    "lng":127.0168322473
  },
  {
    "name":"신당동파라다이스아파트 지하주차장 1층",
    "lat":37.562537093,
    "lng":127.0174886213
  },
  {
    "name":"신당현대아파트 관리동 지하 2층",
    "lat":37.559767789,
    "lng":127.0201090779
  },
  {
    "name":"신당삼성아파트 지하주차장",
    "lat":37.5584043472,
    "lng":127.0167041258
  },
  {
    "name":"약수하이츠아파트 지하주차장",
    "lat":37.5549110413,
    "lng":127.0123437662
  },
  {
    "name":"경향아트힐 지하1층",
    "lat":37.568078913,
    "lng":126.9696352052
  },
  {
    "name":"대한항공 지하1~4층",
    "lat":37.5634233713,
    "lng":126.9741671835
  },
  {
    "name":"농협중앙회 지하2~3층",
    "lat":37.5668447424,
    "lng":126.9680516417
  },
  {
    "name":"신당푸르지오아파트 지하주차장 1~3층",
    "lat":37.5593683473,
    "lng":127.0203027164
  },
  {
    "name":"남산타운아파트2(임대동) 지하1층",
    "lat":37.5475966307,
    "lng":127.0067091193
  },
  {
    "name":"서울역디오빌 지하1~3층",
    "lat":37.5549501031,
    "lng":126.9671933822
  },
  {
    "name":"남산타운아파트1 (분양동)지하1층",
    "lat":37.5475966307,
    "lng":127.0067091193
  },
  {
    "name":"중구청소년수련관 지하",
    "lat":37.5518962946,
    "lng":127.0124087028
  },
  {
    "name":"남산타운문화체육센터 지하1층",
    "lat":37.5475966307,
    "lng":127.0067091193
  },
  {
    "name":"손기정체육공원 지하주차장1~2층",
    "lat":37.5554553657,
    "lng":126.9648205571
  },
  {
    "name":"중구회현체육센터 지하1층",
    "lat":37.5561858745,
    "lng":126.981640675
  },
  {
    "name":"서울특별시청 지하1~4층",
    "lat":37.5662050219,
    "lng":126.9777062791
  },
  {
    "name":"베네치아메가몰 지하3~4층",
    "lat":37.5715295985,
    "lng":127.0217696504
  },
  {
    "name":"엘크루메트로시티 지하2~6층",
    "lat":37.5623720734,
    "lng":126.9928398339
  },
  {
    "name":"용산도서관 민방위대피시설(지하1층)",
    "lat":37.5520892466,
    "lng":126.9798493509
  },
  {
    "name":"녹사평역(지하1~5층)",
    "lat":37.5349641396,
    "lng":126.9868758093
  },
  {
    "name":"남산3호터널(지하1층)",
    "lat":37.5451042271,
    "lng":126.988260631
  },
  {
    "name":"전쟁기념사업회(지하1~2층)",
    "lat":37.534967568,
    "lng":126.9772823367
  },
  {
    "name":"숙대입구역(지하1~2층)",
    "lat":37.5452479049,
    "lng":126.9719097
  },
  {
    "name":"갑을빌딩(지하1층)",
    "lat":37.5495351308,
    "lng":126.9720631289
  },
  {
    "name":"예안빌딩(아트센타)(지하2~3층)",
    "lat":37.5477739696,
    "lng":126.9715158518
  },
  {
    "name":"남영동주민센터(지하1층)",
    "lat":37.5455764845,
    "lng":126.9749661807
  },
  {
    "name":"소화아동병원(지하1층)",
    "lat":37.5537591025,
    "lng":126.9687694728
  },
  {
    "name":"숙명여자대학교(지하1~2층)",
    "lat":37.5453163342,
    "lng":126.9648827458
  },
  {
    "name":"리버힐삼성아파트 지하주차장 1~4층",
    "lat":37.5346369242,
    "lng":126.9514068787
  },
  {
    "name":"효창공원앞역(지하1~3층)",
    "lat":37.5394167921,
    "lng":126.9611995078
  },
  {
    "name":"도원삼성래미안아파트(지하1층~지하4층)",
    "lat":37.5396820083,
    "lng":126.9569394221
  },
  {
    "name":"삼각지역(지하1~4층)",
    "lat":37.5346441664,
    "lng":126.9731128021
  },
  {
    "name":"신용산역(지하1~2층)",
    "lat":37.529676495,
    "lng":126.9684497058
  },
  {
    "name":"LS용산타워(국제빌딩)(지하1~4층)",
    "lat":37.5282173328,
    "lng":126.9673656853
  },
  {
    "name":"이촌역(지하1~2층)",
    "lat":37.5226638463,
    "lng":126.9733894727
  },
  {
    "name":"이촌동 현대아파트(지하 1~1층)",
    "lat":37.5180904648,
    "lng":126.9804407929
  },
  {
    "name":"이촌동 반도아파트(지하1층)",
    "lat":37.5170021027,
    "lng":126.9827943213
  },
  {
    "name":"이촌1동주민센터(지하 1~2층)",
    "lat":37.5213808448,
    "lng":126.9731056066
  },
  {
    "name":"이촌동 대림아파트(지하1~2층)",
    "lat":37.5250018736,
    "lng":126.9553859005
  },
  {
    "name":"이촌동 현대한강아파트(지하1~2층)",
    "lat":37.5231975146,
    "lng":126.9584831587
  },
  {
    "name":"이촌동 북한강아파트( 지하1~2층)",
    "lat":37.5270366262,
    "lng":126.9540162519
  },
  {
    "name":"청화아파트(지하1층)",
    "lat":37.5281756576,
    "lng":126.9934416815
  },
  {
    "name":"해밀턴호텔(지하3~4층)",
    "lat":37.5346342076,
    "lng":126.9938775919
  },
  {
    "name":"지하철 이태원역(지하1~5층)",
    "lat":37.5344884185,
    "lng":126.9936133779
  },
  {
    "name":"이태원 지하보도(지하1층)",
    "lat":37.5379472905,
    "lng":126.9869375922
  },
  {
    "name":"순천향대학병원(지하1~2층)",
    "lat":37.533448839,
    "lng":127.0047223529
  },
  {
    "name":"여선교회전국연합회관(지하1~2층)",
    "lat":37.5350850358,
    "lng":127.01137384
  },
  {
    "name":"하얏트호텔(지하1~2층)",
    "lat":37.5404299554,
    "lng":126.9968626827
  },
  {
    "name":"제일기획빌딩(지하3~4층)",
    "lat":37.5349828006,
    "lng":126.9987573268
  },
  {
    "name":"지하철 한강진역(지하1~4층)",
    "lat":37.5402226025,
    "lng":127.001690408
  },
  {
    "name":"모투스컴퍼니(지하3층)",
    "lat":37.5207901572,
    "lng":126.9936079226
  },
  {
    "name":"한국폴리텍대학 서울정수캠퍼스 본관동 지하1층",
    "lat":37.5300185337,
    "lng":126.996809625
  },
  {
    "name":"보광동신동아아파트 지하1층",
    "lat":37.5261745794,
    "lng":127.0012002363
  },
  {
    "name":"보광동주민센터 지하1~2층",
    "lat":37.5262099371,
    "lng":127.0002528209
  },
  {
    "name":"용문동주민센터(지하1층~지하3층)",
    "lat":37.5390150053,
    "lng":126.9575682636
  },
  {
    "name":"브라운스톤남산아파트(지하2층)",
    "lat":37.5517662441,
    "lng":126.9767588724
  },
  {
    "name":"세방리버하이빌 지하주차장 1층",
    "lat":37.536031374,
    "lng":126.9533794099
  },
  {
    "name":"청암자이아파트 지하주차장 1~2층",
    "lat":37.5351112218,
    "lng":126.9483677955
  },
  {
    "name":"이촌동 LG한강자이아파트(지하1~2층)",
    "lat":37.520156842,
    "lng":126.9703696701
  },
  {
    "name":"한남힐스테이트아파트(지하1~2층)",
    "lat":37.5281301632,
    "lng":127.0047190708
  },
  {
    "name":"서빙고 금호베스트빌(지하1~2층)",
    "lat":37.5233800927,
    "lng":126.9917623487
  },
  {
    "name":"국립중앙박물관(지하1~2층)",
    "lat":37.521168186,
    "lng":126.9791296664
  },
  {
    "name":"서빙고동주민센터(지하1~2층)",
    "lat":37.5204144235,
    "lng":126.9946735969
  },
  {
    "name":"청파동주민센터(지하1~2층)",
    "lat":37.5453505445,
    "lng":126.9699668108
  },
  {
    "name":"씨제이나인파크(지하1~3층)",
    "lat":37.5361284206,
    "lng":126.9696234284
  },
  {
    "name":"효창동 청마루아파트(지하1~2층)",
    "lat":37.5407838125,
    "lng":126.9573028784
  },
  {
    "name":"이태원2동주민센터(지하1층)",
    "lat":37.5419388919,
    "lng":126.9901494621
  },
  {
    "name":"리버빌아파트 지하1층",
    "lat":37.5243880244,
    "lng":127.0011444793
  },
  {
    "name":"아크로타워(지하1~3층)",
    "lat":37.5370383381,
    "lng":126.9690187296
  },
  {
    "name":"이촌2동주민센터(지하1~2층)",
    "lat":37.5262401352,
    "lng":126.9547165655
  },
  {
    "name":"에이치제이중공업건설부문 남영동사옥(지하1~5층)",
    "lat":37.5403760996,
    "lng":126.9727988328
  },
  {
    "name":"시티파크1단지(지하1~3층)",
    "lat":37.5244555669,
    "lng":126.9686829221
  },
  {
    "name":"시티파크2단지(지하1~3층)",
    "lat":37.5264095262,
    "lng":126.9697396021
  },
  {
    "name":"효창동주민센터(지하1층)",
    "lat":37.5425014185,
    "lng":126.9619684169
  },
  {
    "name":"용산구청(지하2~5층)",
    "lat":37.5321859996,
    "lng":126.9902789028
  },
  {
    "name":"서울역(4호선)(지하1~2층)",
    "lat":37.5532034771,
    "lng":126.9727536063
  },
  {
    "name":"용산파크자이(지하1~5층)",
    "lat":37.5366074504,
    "lng":126.9738792301
  },
  {
    "name":"YTN서울타워(지하1층)",
    "lat":37.5510726312,
    "lng":126.987892532
  },
  {
    "name":"현대아이파크몰(용산역) ( 지하1~3층)",
    "lat":37.5291285001,
    "lng":126.9654885873
  },
  {
    "name":"효창파크푸르지오(지하2~3층)",
    "lat":37.5404187616,
    "lng":126.9582055481
  },
  {
    "name":"용산푸르지오파크타운(지하1~2층)",
    "lat":37.5263975028,
    "lng":126.99513822
  },
  {
    "name":"센트레빌아스테리움서울(지하2~9층)",
    "lat":37.5513489814,
    "lng":126.9733433206
  },
  {
    "name":"파크타워(지하1~4층)",
    "lat":37.5240654127,
    "lng":126.9719634367
  },
  {
    "name":"후암동 주민센터(지하1층)",
    "lat":37.5487451626,
    "lng":126.9781597191
  },
  {
    "name":"혜심원(지하1층)",
    "lat":37.5534301649,
    "lng":126.977521806
  },
  {
    "name":"브라운스톤 용산(지하1~2층)",
    "lat":37.53671792,
    "lng":126.9589344239
  },
  {
    "name":"원효로2동 주민센터 지하주차장 1층",
    "lat":37.5343859623,
    "lng":126.9514797379
  },
  {
    "name":"용산2가동 주민센터(지하1~3층)",
    "lat":37.5459029373,
    "lng":126.9855579935
  },
  {
    "name":"백남학술정보관 지하 3층",
    "lat":37.5574125039,
    "lng":127.0429131358
  },
  {
    "name":"대한적십자사 서울지사 지하주차장(지하1층)",
    "lat":37.5713595225,
    "lng":127.0381980394
  },
  {
    "name":"KT행당빌딩 지하1층",
    "lat":37.5591123763,
    "lng":127.0342683475
  },
  {
    "name":"2호선 상왕십리역 지하1층",
    "lat":37.5646266499,
    "lng":127.0287845687
  },
  {
    "name":"응봉 대림1차아파트(지상1층 주차장)",
    "lat":37.5521614585,
    "lng":127.0339886906
  },
  {
    "name":"소월아트홀 지하1층",
    "lat":37.5593454541,
    "lng":127.0361290106
  },
  {
    "name":"대림2차아파트 (관리사무소, 지하 1층)",
    "lat":37.5539054206,
    "lng":127.0334424169
  },
  {
    "name":"응봉 현대아파트(지하 1층 주차장)",
    "lat":37.5500015376,
    "lng":127.0303982127
  },
  {
    "name":"뚝섬현대아파트 지하주차장(지하1층)",
    "lat":37.5477458896,
    "lng":127.0485743774
  },
  {
    "name":"3호선 금호역 지하 1~2층",
    "lat":37.5485309054,
    "lng":127.0156879011
  },
  {
    "name":"응봉동주민센터(지하1층)",
    "lat":37.5531723287,
    "lng":127.0333461482
  },
  {
    "name":"한국전력공사 성동지사 지하주차장(지하1층)",
    "lat":37.5673343267,
    "lng":127.0339338015
  },
  {
    "name":"벽산아파트 지하주차장 1~2층",
    "lat":37.5686173908,
    "lng":127.0304186822
  },
  {
    "name":"5호선 마장역(지하 1~3층)",
    "lat":37.5658362548,
    "lng":127.042524797
  },
  {
    "name":"5호선 왕십리역 지하대합실 1층",
    "lat":37.5611859807,
    "lng":127.0364892926
  },
  {
    "name":"신동아아파트(지하 1층 주차장)",
    "lat":37.5499232664,
    "lng":127.0299162572
  },
  {
    "name":"서울숲 삼부아파트 전체 동의 지하주차장 1층",
    "lat":37.5594900079,
    "lng":127.0371622731
  },
  {
    "name":"삼성아파트 지하주차장(지하1층)",
    "lat":37.565925152,
    "lng":127.0400565976
  },
  {
    "name":"5호선 신금호역 지하 1,2,8층",
    "lat":37.554564234,
    "lng":127.0201339477
  },
  {
    "name":"쌍용아파트 지하주차장(지하1층)",
    "lat":37.5496108701,
    "lng":127.0478662403
  },
  {
    "name":"금호아파트 (지하1층)",
    "lat":37.5432311255,
    "lng":127.0529871128
  },
  {
    "name":"르노삼성AS센터 (지하1층~지하3층)",
    "lat":37.5482688005,
    "lng":127.0595442041
  },
  {
    "name":"성수2차대우아파트 지하주차장(지하1층)",
    "lat":37.548918215,
    "lng":127.0499324539
  },
  {
    "name":"성수동동아그린아파트 지하주차장(지하1층)",
    "lat":37.5507684144,
    "lng":127.0476459791
  },
  {
    "name":"옥수현대아파트단지 지하1층",
    "lat":37.5428762959,
    "lng":127.0172474647
  },
  {
    "name":"성동세무서(지하1층~ 2층 주차장)",
    "lat":37.5484229987,
    "lng":127.0628053155
  },
  {
    "name":"건영아파트(지하 1~3층 주차장)",
    "lat":37.5553238248,
    "lng":127.070873893
  },
  {
    "name":"옥수하이츠아파트(지하1~2층)",
    "lat":37.5410962392,
    "lng":127.0165510853
  },
  {
    "name":"금호초등학교 지하1층",
    "lat":37.5520474568,
    "lng":127.0206723251
  },
  {
    "name":"한양대학교 사범대 본관 지하 1층",
    "lat":37.5574125039,
    "lng":127.0429131358
  },
  {
    "name":"한양대학교 신소재공학관 지하 2층",
    "lat":37.5574125039,
    "lng":127.0429131358
  },
  {
    "name":"한양대학교 올림픽체육관 지하 1층",
    "lat":37.5574125039,
    "lng":127.0429131358
  },
  {
    "name":"한양대학교 공업센터 별관 지하 1층",
    "lat":37.5574125039,
    "lng":127.0429131358
  },
  {
    "name":"한양대학교 자연과학관 지하 2층",
    "lat":37.5574125039,
    "lng":127.0429131358
  },
  {
    "name":"대림강변타운1주차장(지하1~3층)2주차장(지하1~2층)",
    "lat":37.5544481302,
    "lng":127.034691795
  },
  {
    "name":"리버그린동아아파트(지하 1층 주차장)",
    "lat":37.5534762473,
    "lng":127.037637191
  },
  {
    "name":"금호1가동주민센터",
    "lat":37.5548522917,
    "lng":127.0217987042
  },
  {
    "name":"용답동주민센터 지하1층",
    "lat":37.5641467449,
    "lng":127.0554879815
  },
  {
    "name":"서울교통공사(인재개발원) 지하주차장 (지하1층)",
    "lat":37.5619446016,
    "lng":127.0569660586
  },
  {
    "name":"2호선 용답역",
    "lat":37.5622827177,
    "lng":127.0506727671
  },
  {
    "name":"중앙하이츠아파트단지 지하주차장 (지하1~2층)",
    "lat":37.5632070055,
    "lng":127.0549909924
  },
  {
    "name":"서울교통공사 본사 지하주차장 (지하1~3층)",
    "lat":37.5628340352,
    "lng":127.0573013337
  },
  {
    "name":"한신무학아파트 지하1층",
    "lat":37.563051824,
    "lng":127.0282293433
  },
  {
    "name":"왕십리풍림아이원 지하1층~5층",
    "lat":37.5593842322,
    "lng":127.0240056618
  },
  {
    "name":"성동삼성쉐르빌 지하주차장 2~4층",
    "lat":37.5644441856,
    "lng":127.0354234245
  },
  {
    "name":"신한넥스텔 지하주차장 1~3층",
    "lat":37.5637188043,
    "lng":127.0359669834
  },
  {
    "name":"왕십리역이스타빌 지하주차장 1~5층",
    "lat":37.561447311,
    "lng":127.0346791091
  },
  {
    "name":"무학빌딩 지하주차장 1~2층",
    "lat":37.5582204924,
    "lng":127.0342475401
  },
  {
    "name":"성동구청 지하주차장 1~2층",
    "lat":37.5636107422,
    "lng":127.036612646
  },
  {
    "name":"5호선 행당역(지하1층~3층)",
    "lat":37.5572002793,
    "lng":127.0290726508
  },
  {
    "name":"행당한진타운종합상가(지하4층~지하6층)",
    "lat":37.5566372793,
    "lng":127.0286406149
  },
  {
    "name":"행당대림아파트(지하1층 주차장)",
    "lat":37.5567678709,
    "lng":127.0280366164
  },
  {
    "name":"행현초등학교(지하1층)",
    "lat":37.5575805616,
    "lng":127.0295290688
  },
  {
    "name":"행당한진타운아파트(지하1층~2층 주차장)",
    "lat":37.5566267936,
    "lng":127.0282772993
  },
  {
    "name":"행당한진타운임대아파트(지하1층 주차장)",
    "lat":37.5566267936,
    "lng":127.0282772993
  },
  {
    "name":"금호벽산아파트(지하1층~지하2층 주차장)",
    "lat":37.5522945998,
    "lng":127.0256761872
  },
  {
    "name":"금호삼성래미안아파트(지하1층 주차장)",
    "lat":37.5482643974,
    "lng":127.0271012772
  },
  {
    "name":"옥수삼성아파트 지하1~2층",
    "lat":37.5435524982,
    "lng":127.0151316145
  },
  {
    "name":"옥수극동아파트 지하1층",
    "lat":37.5429183461,
    "lng":127.0122915275
  },
  {
    "name":"옥수극동그린아파트 지하1층",
    "lat":37.5417654292,
    "lng":127.0109677983
  },
  {
    "name":"마장에스에이치빌 지하주차장(지하1층)",
    "lat":37.5647456328,
    "lng":127.0409972087
  },
  {
    "name":"강변건영아파트 지하 1층",
    "lat":37.5407501399,
    "lng":127.0441314488
  },
  {
    "name":"행당대림아파트 리빙프라자(지하1층~지하3층)",
    "lat":37.5572069752,
    "lng":127.0286801837
  },
  {
    "name":"금호동대우아파트 지하 1~2층 주차장",
    "lat":37.54653224,
    "lng":127.0200489055
  },
  {
    "name":"금호동롯데아파트 지하1~2층 주차장",
    "lat":37.5468516898,
    "lng":127.016662164
  },
  {
    "name":"강변현대아파트(지하1~2층)",
    "lat":37.5362273206,
    "lng":127.0513111714
  },
  {
    "name":"강변청구아파트(지하2층)",
    "lat":37.5354433711,
    "lng":127.0554254394
  },
  {
    "name":"강변금호타운아파트",
    "lat":37.5351498479,
    "lng":127.0576824285
  },
  {
    "name":"현대아이파크아파트 (지하1층~2층)",
    "lat":37.5472767306,
    "lng":127.0577319122
  },
  {
    "name":"한양대학교 경제금융관 지하 2층",
    "lat":37.5574125039,
    "lng":127.0429131358
  },
  {
    "name":"중앙하이츠빌 지하주차장(지하1층)",
    "lat":37.548238582,
    "lng":127.0482256857
  },
  {
    "name":"서울숲대림아파트 지하 1층",
    "lat":37.5414986346,
    "lng":127.045689154
  },
  {
    "name":"성수동 동양아파트 지하 1층",
    "lat":37.5374742719,
    "lng":127.0461393273
  },
  {
    "name":"서울숲현대아이파크(지하1 ~ 2층 주차장)",
    "lat":37.5529658709,
    "lng":127.0698539235
  },
  {
    "name":"YM프라젠아파트 지하주차장 (지하1층)",
    "lat":37.5613027567,
    "lng":127.0589786138
  },
  {
    "name":"서울응봉초등학교 (지하1층 주차장)",
    "lat":37.5507436132,
    "lng":127.0332716183
  },
  {
    "name":"두산아파트 지하1층",
    "lat":37.5487078941,
    "lng":127.0166885669
  },
  {
    "name":"금호1차 푸르지오아파트 지하1~3층",
    "lat":37.5491192544,
    "lng":127.0197573714
  },
  {
    "name":"금호동한신휴플러스아파트 지하1~2층",
    "lat":37.5506307429,
    "lng":127.0188982564
  },
  {
    "name":"용답초등학교 지하1층",
    "lat":37.5610981695,
    "lng":127.0542266782
  },
  {
    "name":"신영지웰아파트 지하1층",
    "lat":37.5610478204,
    "lng":127.0310513257
  },
  {
    "name":"비트플렉스 지하1층",
    "lat":37.5612850575,
    "lng":127.0379027111
  },
  {
    "name":"송원초등학교 지하주차장(지하 1층)",
    "lat":37.5541433409,
    "lng":127.0697575928
  },
  {
    "name":"한양대학교 한양종합기술연구원 지하 1층",
    "lat":37.5574125039,
    "lng":127.0429131358
  },
  {
    "name":"한양대학교 정보통신관 지하 1층",
    "lat":37.5574125039,
    "lng":127.0429131358
  },
  {
    "name":"한양대학교 제3법학관 지하 1층",
    "lat":37.5574125039,
    "lng":127.0429131358
  },
  {
    "name":"청계대주파크빌 지하주차장 1층",
    "lat":37.5673532377,
    "lng":127.0314454537
  },
  {
    "name":"노블리안 지하주차장 1~2층",
    "lat":37.5651610045,
    "lng":127.0271239299
  },
  {
    "name":"왕십리모노퍼스주상복합 지하주차장 1~2층",
    "lat":37.569569874,
    "lng":127.0296200265
  },
  {
    "name":"금호브라운스톤아파트1차 지하1~3층",
    "lat":37.5460753698,
    "lng":127.0156323121
  },
  {
    "name":"서울숲푸르지오1차 지하1~3층 주차장",
    "lat":37.5449004745,
    "lng":127.0241570629
  },
  {
    "name":"왕십리도선동 공공복합청사 지하주차장 1층",
    "lat":37.5677708271,
    "lng":127.0254635478
  },
  {
    "name":"텐즈힐1단지 지하주차장 1~3층",
    "lat":37.5672378629,
    "lng":127.029896407
  },
  {
    "name":"텐즈힐2단지 지하주차장 1~3층",
    "lat":37.5678380713,
    "lng":127.0251594868
  },
  {
    "name":"성수롯데캐슬파크 (지하 1~2층)",
    "lat":37.5453976668,
    "lng":127.0556898341
  },
  {
    "name":"답십리역 지하 1~3층",
    "lat":37.5659405459,
    "lng":127.0538652999
  },
  {
    "name":"한강한신아파트(지하2~3층)",
    "lat":37.5356183668,
    "lng":127.0533414926
  },
  {
    "name":"성수두산위브아파트(지하1층)",
    "lat":37.5376465123,
    "lng":127.0582216629
  },
  {
    "name":"한진타운아파트 지하 1층",
    "lat":37.5414554223,
    "lng":127.0442711167
  },
  {
    "name":"와이하우스 지하주차장 (지하1~3층)",
    "lat":37.5586159308,
    "lng":127.0671334334
  },
  {
    "name":"KCC스위첸아파트 지하1층~3층",
    "lat":37.5603764713,
    "lng":127.0266828994
  },
  {
    "name":"서울숲한신더휴아파트 전체 동의 지하주차장 2~4층",
    "lat":37.5549158826,
    "lng":127.0350074004
  },
  {
    "name":"청계현대아파트 지하주차장(지하1~2층)",
    "lat":37.5701943766,
    "lng":127.0428209317
  },
  {
    "name":"성수문화복지회관 지하1~2층",
    "lat":37.5452521417,
    "lng":127.0470764704
  },
  {
    "name":"서울숲 ITCT 지식산업센터 지하 1~5층",
    "lat":37.5413361235,
    "lng":127.0487401764
  },
  {
    "name":"FORHU 지하 1~5층",
    "lat":37.542737029,
    "lng":127.0447124228
  },
  {
    "name":"행당브라운스톤(지하1층 주차장)",
    "lat":37.558336663,
    "lng":127.0296438076
  },
  {
    "name":"행당두산위브(지하1층 주창장)",
    "lat":37.5573112765,
    "lng":127.0306744496
  },
  {
    "name":"서울숲행당푸르지오(지하1층~지하3층)",
    "lat":37.5560127505,
    "lng":127.0336416138
  },
  {
    "name":"하왕극동미라주아파트 지하1층~2층",
    "lat":37.5586587086,
    "lng":127.0235575375
  },
  {
    "name":"금호베스트빌 지하 1층",
    "lat":37.5617550624,
    "lng":127.0252608727
  },
  {
    "name":"서울숲역 수인분당선 지하1층~4층",
    "lat":37.5445456489,
    "lng":127.044853324
  },
  {
    "name":"성수SKV1 지식산업센터(지하1층~ 5층)",
    "lat":37.5434016144,
    "lng":127.0556548433
  },
  {
    "name":"성락성결교회(지하1층 ~ 4층)",
    "lat":37.5463707626,
    "lng":127.0536541348
  },
  {
    "name":"센트라스 지하주차장 1~6층",
    "lat":37.5652779079,
    "lng":127.0247810615
  },
  {
    "name":"왕십리자이아파트 지하1층",
    "lat":37.5607768614,
    "lng":127.0239828472
  },
  {
    "name":"한양대학교 대운동장 주차장 지하1층",
    "lat":37.5574125039,
    "lng":127.0429131358
  },
  {
    "name":"한양대학교 대운동장 주차장 지하2층",
    "lat":37.5574125039,
    "lng":127.0429131358
  },
  {
    "name":"한양대학교 한양종합기술연구원 주차장 지하1층",
    "lat":37.5574125039,
    "lng":127.0429131358
  },
  {
    "name":"한양대학교 한양종합기술연구원 주차장 지하 2층",
    "lat":37.5574125039,
    "lng":127.0429131358
  },
  {
    "name":"서울숲AK밸리 지식산업센터 지하주차장(지하2~5층)",
    "lat":37.5494520334,
    "lng":127.0512789449
  },
  {
    "name":"지웰홈스 왕십리 지하주차장 1~2층",
    "lat":37.5631577146,
    "lng":127.0374721059
  },
  {
    "name":"서울숲 한라시그마밸리(지하1~5층)",
    "lat":37.5399013048,
    "lng":127.0550466916
  },
  {
    "name":"서울숲 한라시그마밸리 2차 (지하3~4층)",
    "lat":37.5399169793,
    "lng":127.0546192691
  },
  {
    "name":"서울숲 코오롱디지털타워1차(지하1~3층)",
    "lat":37.5421553108,
    "lng":127.0516538265
  },
  {
    "name":"래미안 옥수리버젠아파트(지하1~2층)",
    "lat":37.5453080143,
    "lng":127.0152948487
  },
  {
    "name":"현대테라스타워 지식산업센터 지하 1~4층",
    "lat":37.5440863066,
    "lng":127.05367151
  },
  {
    "name":"성수동 우림 이비즈센터 지식산업센터 지하 1~3층",
    "lat":37.5468139715,
    "lng":127.063259092
  },
  {
    "name":"성수AK밸리(지하3~4층)",
    "lat":37.5415059465,
    "lng":127.0575266128
  },
  {
    "name":"메타모르포 지하주차장(지하1~3층)",
    "lat":37.5484179043,
    "lng":127.0507570469
  },
  {
    "name":"성수선명스퀘어 지하주차장(지하1층)",
    "lat":37.5504528479,
    "lng":127.0515830241
  },
  {
    "name":"서울숲코오롱디지털타워3차 지하주차장(지하1~3층)",
    "lat":37.5467876473,
    "lng":127.0500373255
  },
  {
    "name":"SK테크노빌딩 지하주차장(지하2~3층)",
    "lat":37.5454657436,
    "lng":127.049535522
  },
  {
    "name":"동진아이티타워 지하주차장(지하1~5층)",
    "lat":37.5500400418,
    "lng":127.0506633703
  },
  {
    "name":"서울숲IT캐슬 지하주차장(지하2~5층)",
    "lat":37.5509788077,
    "lng":127.0447206896
  },
  {
    "name":"서울숲SK V1타워 지하 1~4층",
    "lat":37.5467558711,
    "lng":127.0512610687
  },
  {
    "name":"송정동 공공복합청사(지하1층~ 3층 주차장)",
    "lat":37.5532205343,
    "lng":127.0683584787
  },
  {
    "name":"행당대림아파트임대(지하1층 주차장)",
    "lat":37.5567678709,
    "lng":127.0280366164
  },
  {
    "name":"세종대학교 군자관 지하1층",
    "lat":37.5491062531,
    "lng":127.0750472526
  },
  {
    "name":"자양초등학교 강당 지하 1층",
    "lat":37.5365015085,
    "lng":127.0796333697
  },
  {
    "name":"동국대학교사범대학 부속 가람중하교 지하1층",
    "lat":37.5427811715,
    "lng":127.0861610449
  },
  {
    "name":"용마초등학교 지하1층",
    "lat":37.5575631146,
    "lng":127.0832977366
  },
  {
    "name":"어린이회관 지하 1층",
    "lat":37.5460145174,
    "lng":127.0786055551
  },
  {
    "name":"광장동주민센터 지하 1층",
    "lat":37.5468401203,
    "lng":127.1030231801
  },
  {
    "name":"자양2동주민센터 지하주차장 1층",
    "lat":37.5288213508,
    "lng":127.0845061991
  },
  {
    "name":"군자지하보도 지하1층",
    "lat":37.560073764,
    "lng":127.0738299105
  },
  {
    "name":"현대하이츠빌라 지하주차장 1층",
    "lat":37.5560778449,
    "lng":127.0930422183
  },
  {
    "name":"광진경찰서 주차장 지하 1층~3층",
    "lat":37.5426716811,
    "lng":127.0840584014
  },
  {
    "name":"국립정신건강센터 주차장 지하1~2층",
    "lat":37.5650102747,
    "lng":127.0861721047
  },
  {
    "name":"대순진리회 지하1층",
    "lat":37.5602767901,
    "lng":127.0877261761
  },
  {
    "name":"자양3동주민센터 지하1층",
    "lat":37.533833951,
    "lng":127.0729024434
  },
  {
    "name":"자양4동주민센터 지하주차장 1층",
    "lat":37.5341688114,
    "lng":127.0662201281
  },
  {
    "name":"크레스코 오피스텔 지하주차장 3층~6층",
    "lat":37.5510643732,
    "lng":127.1097079402
  },
  {
    "name":"리버힐 오피스텔 지하 1~2층",
    "lat":37.5499515893,
    "lng":127.1102837289
  },
  {
    "name":"광장현대3단지아파트 지하주차장 1층",
    "lat":37.5407407592,
    "lng":127.0999131826
  },
  {
    "name":"강변우성아파트 지하주차장 1층",
    "lat":37.5345760463,
    "lng":127.0921849057
  },
  {
    "name":"동서울터미널 지하주차장 2~3층",
    "lat":37.5347005075,
    "lng":127.093330451
  },
  {
    "name":"광나루현대아파트 지하주차장 1~2층",
    "lat":37.5468088001,
    "lng":127.1077774364
  },
  {
    "name":"건국대 상허기념도서관 지하 2층",
    "lat":37.5416090911,
    "lng":127.0717799526
  },
  {
    "name":"리젠트오피스텔 지하주차장 1~4층",
    "lat":37.5327852751,
    "lng":127.0924218554
  },
  {
    "name":"강변현대아파트 지하주차장 지하1~2층",
    "lat":37.5282971817,
    "lng":127.0853196552
  },
  {
    "name":"한강극동아파트 지하주차장 1층",
    "lat":37.5340896563,
    "lng":127.0644579586
  },
  {
    "name":"구의3동주민센터 지하주차장 1~2층",
    "lat":37.5379504085,
    "lng":127.0919849248
  },
  {
    "name":"JS빌딩 지하1층",
    "lat":37.5553202879,
    "lng":127.0849741616
  },
  {
    "name":"대원외고 지하주차장",
    "lat":37.5636485179,
    "lng":127.0886033006
  },
  {
    "name":"인성하이텍 빌딩 지하주차장 1~2층",
    "lat":37.5487952742,
    "lng":127.1074006756
  },
  {
    "name":"광진구청 구내식당 지하1층",
    "lat":37.5383134967,
    "lng":127.0831089821
  },
  {
    "name":"신용보증기금 주차장 지하1층",
    "lat":37.544774166,
    "lng":127.0872592052
  },
  {
    "name":"한강현대아파트 지하주차장 1층",
    "lat":37.5332115315,
    "lng":127.0672668648
  },
  {
    "name":"한강우성아파트 지하주차장 1층",
    "lat":37.5326899318,
    "lng":127.0661833479
  },
  {
    "name":"신성그랜드타워 지하주차장 1~2층",
    "lat":37.5649848807,
    "lng":127.0806214757
  },
  {
    "name":"삼민아파트 지하1층",
    "lat":37.5633130311,
    "lng":127.0837887102
  },
  {
    "name":"현대6단지아파트 지하주차장 1층",
    "lat":37.5388362448,
    "lng":127.0941037123
  },
  {
    "name":"광장현대8단지아파트 지하주차장 1~2층",
    "lat":37.5421488179,
    "lng":127.0994394312
  },
  {
    "name":"군자역 지하 1~3층",
    "lat":37.5568626227,
    "lng":127.0791205342
  },
  {
    "name":"아차산역(5호선) 대합실 지하 1~2층",
    "lat":37.552277507,
    "lng":127.0895801355
  },
  {
    "name":"중곡역 대합실 지하1~3층",
    "lat":37.5662639654,
    "lng":127.0843279952
  },
  {
    "name":"어린이대공원역 지하 1~3층",
    "lat":37.5488937586,
    "lng":127.0754160224
  },
  {
    "name":"광나루역 지하 1~2층",
    "lat":37.5447294602,
    "lng":127.1037058252
  },
  {
    "name":"동서울우편집중국 지하주차장 2층",
    "lat":37.5346400739,
    "lng":127.0845988255
  },
  {
    "name":"자양현대2차아파트 지하주차장 1~2층",
    "lat":37.5343401057,
    "lng":127.0700270811
  },
  {
    "name":"일성파크아파트 지하주차장 지하1층",
    "lat":37.5521453105,
    "lng":127.0726183298
  },
  {
    "name":"한라아파트 지하주차장 1~2층",
    "lat":37.5358821049,
    "lng":127.0697878934
  },
  {
    "name":"현대7단지아파트 지하주차장 1~2층",
    "lat":37.5371285314,
    "lng":127.0911830897
  },
  {
    "name":"현대프라임아파트 지하주차장 1층",
    "lat":37.5380421205,
    "lng":127.0972434283
  },
  {
    "name":"자양우성7차아파트 지하주차장 1~2층",
    "lat":37.5369096797,
    "lng":127.0739468967
  },
  {
    "name":"한강성원아파트 지하주차장 1층",
    "lat":37.5332024006,
    "lng":127.0662789287
  },
  {
    "name":"건대입구역 7호선 지하2층",
    "lat":37.5407777237,
    "lng":127.0711118953
  },
  {
    "name":"테크노마트 지하주차장 1~5층",
    "lat":37.5361409504,
    "lng":127.0952934754
  },
  {
    "name":"로얄동아아파트 지하주차장 지하1~2층",
    "lat":37.5286562661,
    "lng":127.0814028302
  },
  {
    "name":"이튼타워리버5차아파트 지하주차장 1~2층",
    "lat":37.5325679302,
    "lng":127.0693444043
  },
  {
    "name":"에스케이아파트 지하주차장 1층",
    "lat":37.569317889,
    "lng":127.0866415165
  },
  {
    "name":"한국중앙교회 지하1층 식당",
    "lat":37.5686261576,
    "lng":127.085100091
  },
  {
    "name":"중곡문화체육센터 주차장 지하1층",
    "lat":37.5677529587,
    "lng":127.0850327402
  },
  {
    "name":"중곡1동 주민센터 지하1층",
    "lat":37.5606108225,
    "lng":127.0798788145
  },
  {
    "name":"중곡2동 주민센터 지하1층",
    "lat":37.5602690784,
    "lng":127.0813566627
  },
  {
    "name":"중곡3동 주민센터 지하1층",
    "lat":37.5687916874,
    "lng":127.0800876212
  },
  {
    "name":"중곡4동 주민센터 지하 1층",
    "lat":37.5590388246,
    "lng":127.0894693749
  },
  {
    "name":"능동 주민센터 지하 1층",
    "lat":37.5538416925,
    "lng":127.0804379728
  },
  {
    "name":"자양1동 주민센터 지하주차장 1층",
    "lat":37.5345769263,
    "lng":127.082308807
  },
  {
    "name":"화양동 주민센터 지하 2층",
    "lat":37.5466842397,
    "lng":127.0713536588
  },
  {
    "name":"범천타워 지하 1~4층",
    "lat":37.5561387395,
    "lng":127.0813230462
  },
  {
    "name":"군자메가박스 지하주차장 지하1층",
    "lat":37.5557496274,
    "lng":127.0784196567
  },
  {
    "name":"자양5차현대아파트 지하주차장 지하 1~3층",
    "lat":37.5284293109,
    "lng":127.0794393593
  },
  {
    "name":"건국대 새천년관 지하 2층",
    "lat":37.5416090911,
    "lng":127.0717799526
  },
  {
    "name":"건국대 산학협동관 지하 1층",
    "lat":37.5416090911,
    "lng":127.0717799526
  },
  {
    "name":"건국대 상허연구관 지하 1층",
    "lat":37.5416090911,
    "lng":127.0717799526
  },
  {
    "name":"새한아파트 주차장 지하1층",
    "lat":37.5407772,
    "lng":127.0878699053
  },
  {
    "name":"케이티앤지성동지사 주차장 지하1층",
    "lat":37.5714936614,
    "lng":127.080267233
  },
  {
    "name":"래미안프리미어팰리스아파트 102동 지하주차장 1,2층",
    "lat":37.5374202516,
    "lng":127.0815523469
  },
  {
    "name":"동국대학교 사범대학 부속 가람고등학교 지하1층",
    "lat":37.5427811715,
    "lng":127.0861610449
  },
  {
    "name":"래미안파크스위트아파트 지하주차장 지하 1~2층",
    "lat":37.5454656352,
    "lng":127.0912189954
  },
  {
    "name":"구의1동 주민센터 주차장 지하1층",
    "lat":37.5423867227,
    "lng":127.0857642498
  },
  {
    "name":"자양대동아파트  지하주차장 1층",
    "lat":37.5364210178,
    "lng":127.0679196361
  },
  {
    "name":"한강아남아파트 지하주차장 1층",
    "lat":37.5334414474,
    "lng":127.0648423586
  },
  {
    "name":"한영해시안아파트 지하주차장 1층",
    "lat":37.5398935354,
    "lng":127.0634322197
  },
  {
    "name":"세종대학교 대양AI센터 지하주차장 지하3~5층",
    "lat":37.5491062531,
    "lng":127.0750472526
  },
  {
    "name":"군자동 공영주차장 지하1층",
    "lat":37.5538744233,
    "lng":127.07682648
  },
  {
    "name":"군자동 복합청사 지하주차장 지하1~2층",
    "lat":37.5554758658,
    "lng":127.0754749024
  },
  {
    "name":"구의2동 복합청사 지하주차장 지하1~3층",
    "lat":37.5471482252,
    "lng":127.0899571596
  },
  {
    "name":"중곡제3동주민센터",
    "lat":37.5688085263,
    "lng":127.0801458121
  },
  {
    "name":"경희대학교 청운관 지하 1,2층",
    "lat":37.5938822863,
    "lng":127.0527143863
  },
  {
    "name":"경동시장신관 지하주차장 1층",
    "lat":37.5789319809,
    "lng":127.0387333781
  },
  {
    "name":"경희의료원 지하 1,2층",
    "lat":37.5937482618,
    "lng":127.0525695155
  },
  {
    "name":"답십리 우성그린아파트 지하주차장 지하 1층",
    "lat":37.5742859689,
    "lng":127.0664385663
  },
  {
    "name":"동대문구청 지하주차장 1층,2층",
    "lat":37.5743694043,
    "lng":127.0397079383
  },
  {
    "name":"휘경미소지움아파트 지하주차장 지하 1층",
    "lat":37.5910487923,
    "lng":127.064844422
  },
  {
    "name":"경희의료원 주차빌딩 지하주차장 지하1,2층",
    "lat":37.5935201034,
    "lng":127.050322115
  },
  {
    "name":"답십리 두산아파트 지하주차장 지하 1층",
    "lat":37.5718796762,
    "lng":127.0593985508
  },
  {
    "name":"답십리 청솔우성아파트 지하주차장 지하 1,2층",
    "lat":37.5749079793,
    "lng":127.0587345242
  },
  {
    "name":"휘경동 동양아파트 지하주차장 지하1,2층",
    "lat":37.5920843525,
    "lng":127.0677790379
  },
  {
    "name":"휘경롯데낙천대아파트 지하주차장 지하1,2층",
    "lat":37.592208256,
    "lng":127.0650248865
  },
  {
    "name":"전농SK아파트 지하주차장 지하 1,2층",
    "lat":37.5777878649,
    "lng":127.0612366054
  },
  {
    "name":"서울시립대 조형관 지하 1, 2층",
    "lat":37.5834641376,
    "lng":127.0550541808
  },
  {
    "name":"전농 우성아파트 지하주차장 지하 1층",
    "lat":37.5783326512,
    "lng":127.0660469402
  },
  {
    "name":"서울삼육병원 추모관 지하주차장 1층, 2층",
    "lat":37.5898639203,
    "lng":127.0625252761
  },
  {
    "name":"휘경현대아파트 지하주차장 지하1,2층",
    "lat":37.5862734023,
    "lng":127.0551523722
  },
  {
    "name":"과학기술원  경영관대학 지하 1층, 2층",
    "lat":37.5918004116,
    "lng":127.0461283399
  },
  {
    "name":"서울성심병원 지하 1,2층",
    "lat":37.5841555792,
    "lng":127.0499693588
  },
  {
    "name":"5호선  답십리역 지하 1층, 2층",
    "lat":37.5664229254,
    "lng":127.0537361218
  },
  {
    "name":"답십리 동아아파트 지하주차장 지하 1,2층",
    "lat":37.5682021317,
    "lng":127.0613603921
  },
  {
    "name":"1호선 청량리역 지하 1층, 2층",
    "lat":37.5806409842,
    "lng":127.045787508
  },
  {
    "name":"전농동 동아아파트 지하주차장 지하 1,2층",
    "lat":37.5745585246,
    "lng":127.0461025672
  },
  {
    "name":"1호선 제기동역 지하 1층, 2층",
    "lat":37.5782655793,
    "lng":127.0336911596
  },
  {
    "name":"1호선 신설동역 지하 1층, 2층",
    "lat":37.575897207,
    "lng":127.0236952089
  },
  {
    "name":"2호선 신설동역 지하 1층, 2층",
    "lat":37.575897207,
    "lng":127.0236952089
  },
  {
    "name":"이문푸르지오아파트 지하주차장 지하 1,2층",
    "lat":37.6025423992,
    "lng":127.0704368493
  },
  {
    "name":"이문e편한세상아파트 지하주차장 지하1,2층",
    "lat":37.604364808,
    "lng":127.0665342699
  },
  {
    "name":"이문쌍용아파트 지하주차장 1, 2, 3층",
    "lat":37.5992006776,
    "lng":127.0690511496
  },
  {
    "name":"이문현대아파트 지하주차장 지하 1,2층",
    "lat":37.6013397123,
    "lng":127.0708025795
  },
  {
    "name":"장안 한신아파트 지하주차장 지하1,2층",
    "lat":37.579464385,
    "lng":127.0722958188
  },
  {
    "name":"전농 삼성아파트 지하주차장 1층",
    "lat":37.5815009953,
    "lng":127.0552298316
  },
  {
    "name":"래미안 장안아파트 지하주차장 1층",
    "lat":37.5650722163,
    "lng":127.0724039336
  },
  {
    "name":"장안현대홈타운 지하주차장 지하1,2층",
    "lat":37.5697266803,
    "lng":127.0757422689
  },
  {
    "name":"전농 씨티빌라트 지하주차장 1층",
    "lat":37.5839057311,
    "lng":127.0534557811
  },
  {
    "name":"동부센트레빌103동 지하주차장 지하1,2,3층",
    "lat":37.5862954966,
    "lng":127.0455650391
  },
  {
    "name":"홍릉동부제2임대아파트 지하주차장 1,2,3,4층",
    "lat":37.5856381966,
    "lng":127.0452852748
  },
  {
    "name":"이문 삼익아파트 지하주차장 1층",
    "lat":37.5965879001,
    "lng":127.0671322635
  },
  {
    "name":"이문 중앙하이츠빌 지하주차장 1,2층",
    "lat":37.5967847799,
    "lng":127.0651515444
  },
  {
    "name":"청량리 한신아파트 지하주차장 지하1,2,3층",
    "lat":37.5872700268,
    "lng":127.0482636737
  },
  {
    "name":"답십리 두산임대아파트 지하주차장 1층",
    "lat":37.5702017652,
    "lng":127.0593807491
  },
  {
    "name":"5호선 장한평역 지하 1층, 2층",
    "lat":37.5616536973,
    "lng":127.0639718082
  },
  {
    "name":"제기 이수브라운아파트 지하주차장 지하1,2층",
    "lat":37.5822456361,
    "lng":127.0348328553
  },
  {
    "name":"제기벽산아파트 지하주차장 지하1,2층 정문,102동앞",
    "lat":37.5828501571,
    "lng":127.0328467238
  },
  {
    "name":"2호선 용두역 지하 1층, 2층",
    "lat":37.574278471,
    "lng":127.0377859253
  },
  {
    "name":"장안현대벤처빌 지하주차장 지하1,2,3층",
    "lat":37.5684675013,
    "lng":127.0689831419
  },
  {
    "name":"이문 래미안2차아파트 지하주차장 지하1,2층",
    "lat":37.5937599523,
    "lng":127.0591012652
  },
  {
    "name":"한국외국어대 교수학습개발원 지하1층",
    "lat":37.5965558003,
    "lng":127.0599881218
  },
  {
    "name":"휘경 동일스위트리버 지하주차장 지하 1,2층",
    "lat":37.5874361645,
    "lng":127.0679541077
  },
  {
    "name":"휘경 주공아파트 지하주차장 지하 1,2층",
    "lat":37.5829511364,
    "lng":127.0685901093
  },
  {
    "name":"답십리 청계벽산메가트리움 지하주차장 지하1층",
    "lat":37.5697461133,
    "lng":127.0493360617
  },
  {
    "name":"장안삼성래미안2차 지하주차장 지하 1,2층",
    "lat":37.5749542297,
    "lng":127.0760353114
  },
  {
    "name":"답십리 청솔2차우성아파트 지하주차장 지하 1층",
    "lat":37.575830841,
    "lng":127.0619638939
  },
  {
    "name":"용두두산위브아파트 지하주차장 지하1,2층",
    "lat":37.5736226706,
    "lng":127.0352593585
  },
  {
    "name":"용두 래미안허브리츠아파트 지하주차장 지하 1,2층",
    "lat":37.5754577643,
    "lng":127.0351685375
  },
  {
    "name":"답십리 청계한신휴플러스 아파트 지하주차장 지하1,2층",
    "lat":37.5729587396,
    "lng":127.0452716608
  },
  {
    "name":"롯데백화점 청량리역사점 지하1층, 2층",
    "lat":37.5804978041,
    "lng":127.0474603194
  },
  {
    "name":"동부시립병원 지하주차장 지하 1,2층",
    "lat":37.5752742011,
    "lng":127.0309736144
  },
  {
    "name":"답십리 한화아파트 지하주차장 지하 1,2층",
    "lat":37.5669274798,
    "lng":127.0538765576
  },
  {
    "name":"휘경 롯데아파트 지하주차장 지하 1층",
    "lat":37.5907254891,
    "lng":127.0636631021
  },
  {
    "name":"전농 래미안 아름숲아파트 지하주차장 지하 1,2층",
    "lat":37.5783814739,
    "lng":127.060359288
  },
  {
    "name":"제기동한신휴플러스 지하주차장 지하1,2층",
    "lat":37.587533528,
    "lng":127.0384573247
  },
  {
    "name":"휘경 동부센트레빌 아파트 지하주차장 지하 1,2층",
    "lat":37.5909198236,
    "lng":127.0679466376
  },
  {
    "name":"휘경 이수브라운스톤 아파트 지하주차장 지하 1,2층",
    "lat":37.5907425558,
    "lng":127.0670787015
  },
  {
    "name":"전농래미안 크레시티 아파트 지하주차장 지하1,2층",
    "lat":37.5748815041,
    "lng":127.0528583928
  },
  {
    "name":"답십리 래미안위브 아파트 지하주차장 지하1,2층",
    "lat":37.5726955059,
    "lng":127.0542115095
  },
  {
    "name":"장안힐스테이트아파트 지하주차장 지하1,2층",
    "lat":37.5766856044,
    "lng":127.075917071
  },
  {
    "name":"회기힐스테이트아파트지하주차장 1층, 104동앞",
    "lat":37.5901880833,
    "lng":127.0540778358
  },
  {
    "name":"휘경중학교 거주자 지하 주차장 지하1,2층",
    "lat":37.5873245814,
    "lng":127.0615110292
  },
  {
    "name":"제기서울한방진흥센터공영 지하주차장 1,2,3층",
    "lat":37.5806116331,
    "lng":127.0372098415
  },
  {
    "name":"전농동신성미소지움아파트 지하주차장 지하 1,2층",
    "lat":37.5778386027,
    "lng":127.0485692475
  },
  {
    "name":"용신e편한세상센트럴포레 지하주차장 지하 1,2,3층",
    "lat":37.5723788611,
    "lng":127.0292752173
  },
  {
    "name":"서울시립대운동장 지하주차장 1,2,3구역",
    "lat":37.5834641376,
    "lng":127.0550541808
  },
  {
    "name":"장안 동대문퍼스트데시앙지하주차장 지하1,2층",
    "lat":37.5747601895,
    "lng":127.0710836655
  },
  {
    "name":"휘경SK뷰아파트지하주차장(지하1,2,3층)",
    "lat":37.5941147038,
    "lng":127.0663040927
  },
  {
    "name":"휘경해모로아파트지하주차장 지하 1,2층",
    "lat":37.5916634282,
    "lng":127.0633306424
  },
  {
    "name":"용두동래미안엘리니티1,2단지 지하1,2층",
    "lat":37.57885978,
    "lng":127.0281443783
  },
  {
    "name":"용두동롯데캐슬리치지하주차장 지하1,2층",
    "lat":37.5786572621,
    "lng":127.0308288348
  },
  {
    "name":"장안삼성쉐르빌지하주차장 지하1,2,3,4,5층",
    "lat":37.5712228398,
    "lng":127.070709638
  },
  {
    "name":"한국외국어대학교 지하주차장 지하2층",
    "lat":37.5965558003,
    "lng":127.0599881218
  },
  {
    "name":"뉴한두빌라(지하주차장 1층)",
    "lat":37.5919077606,
    "lng":127.0871827512
  },
  {
    "name":"혜원여고 (1층 강당)",
    "lat":37.5928293243,
    "lng":127.0958854856
  },
  {
    "name":"송곡여자고등학교 (지하 1층)",
    "lat":37.6063069536,
    "lng":127.105698007
  },
  {
    "name":"동서울농협(지하주차장 1층)",
    "lat":37.5959329037,
    "lng":127.0847440198
  },
  {
    "name":"유영상가(지하주차장 1층)",
    "lat":37.5914016956,
    "lng":127.0968991836
  },
  {
    "name":"상아빌딩(지하주차장1층)",
    "lat":37.59498959,
    "lng":127.1000420623
  },
  {
    "name":"그린프라자(지하1층)",
    "lat":37.5996054847,
    "lng":127.079422751
  },
  {
    "name":"이대병설미디어고(지상 1~2층)",
    "lat":37.6030333354,
    "lng":127.1034567172
  },
  {
    "name":"상봉터미널(지하 1층)",
    "lat":37.5964084538,
    "lng":127.0926659186
  },
  {
    "name":"송곡고등학교(지하 1층)",
    "lat":37.604842542,
    "lng":127.1067646105
  },
  {
    "name":"용마한신2차아파트(지하주차장 1~2층)",
    "lat":37.5808097173,
    "lng":127.0948700452
  },
  {
    "name":"메가박스 (구 : 뉴월드씨네마-지하주차장1층)",
    "lat":37.593283351,
    "lng":127.074667806
  },
  {
    "name":"한국전력공사동대문중랑지사 (지하 1층)",
    "lat":37.6073949404,
    "lng":127.0787399029
  },
  {
    "name":"용마한신아파트1차 상가 (지하주차장 1층)",
    "lat":37.5808261671,
    "lng":127.0949819502
  },
  {
    "name":"용마한신1차아파트3동(지하1층)",
    "lat":37.5808261671,
    "lng":127.0949819502
  },
  {
    "name":"동국빌딩(지하주차장1~2층)",
    "lat":37.598640742,
    "lng":127.095613519
  },
  {
    "name":"면목4동주민센터(지하 1층)",
    "lat":37.5747971605,
    "lng":127.0855826417
  },
  {
    "name":"가나안교회(지하주차장1층)",
    "lat":37.595135014,
    "lng":127.0790492811
  },
  {
    "name":"용마금호타운(지하주차장 1층)",
    "lat":37.5829400357,
    "lng":127.0937068254
  },
  {
    "name":"제일프라자(지하주차장2층)",
    "lat":37.6051014109,
    "lng":127.0775669065
  },
  {
    "name":"동성1,2차아파트(모든 동의 지하1층)",
    "lat":37.6104311042,
    "lng":127.0963175948
  },
  {
    "name":"일신강변아파트(지하주차장 1~2층)",
    "lat":37.5867096074,
    "lng":127.0746333965
  },
  {
    "name":"동서그랜드맨션(지하주차장 1층)",
    "lat":37.5860667104,
    "lng":127.0780155628
  },
  {
    "name":"진광교회(지하주차장 1층)",
    "lat":37.582720288,
    "lng":127.0843354134
  },
  {
    "name":"현대아파트(지하주차장 1~6층)",
    "lat":37.5752463786,
    "lng":127.0891396328
  },
  {
    "name":"건영1차아파트(지하주차장 1~2층)",
    "lat":37.6035109533,
    "lng":127.0938004668
  },
  {
    "name":"미성라이프아파트(지하주차장 1층)",
    "lat":37.5888495512,
    "lng":127.1005628947
  },
  {
    "name":"국민은행중화지점(지하주차장1-2층)",
    "lat":37.5980143882,
    "lng":127.0799065159
  },
  {
    "name":"중화삼익아파트(지하주차장1층)",
    "lat":37.6043959792,
    "lng":127.0777182219
  },
  {
    "name":"신내5단지두산대림아파트(지하주차장 1층)",
    "lat":37.6170402964,
    "lng":127.0900161458
  },
  {
    "name":"이안빌딩(지하주차장 1층)",
    "lat":37.5980462225,
    "lng":127.0943044388
  },
  {
    "name":"신세대프라자(지하주차장 2층)",
    "lat":37.589885656,
    "lng":127.0902894547
  },
  {
    "name":"사가정역(지하 1~3층)",
    "lat":37.5808082264,
    "lng":127.0883627332
  },
  {
    "name":"삼호아파트(지하주차장1~2층)",
    "lat":37.5763446542,
    "lng":127.0888239256
  },
  {
    "name":"용마산역(지하 1~3층)",
    "lat":37.5739597555,
    "lng":127.0868173602
  },
  {
    "name":"솔원그린타운(지하주차장 1층)",
    "lat":37.5840896254,
    "lng":127.078843049
  },
  {
    "name":"신내쌍용아파트(지하주차장 1층)",
    "lat":37.6032781661,
    "lng":127.0885463105
  },
  {
    "name":"건영2차아파트(지하주차장 1~2층)",
    "lat":37.6013665851,
    "lng":127.0950623907
  },
  {
    "name":"중화역(지하 1~3층)",
    "lat":37.6016268871,
    "lng":127.0794027214
  },
  {
    "name":"먹골역(지하 1~3층)",
    "lat":37.6108596306,
    "lng":127.077648811
  },
  {
    "name":"신내4단지아파트(각 동 지하주차장 1층)",
    "lat":37.6163458302,
    "lng":127.0858311687
  },
  {
    "name":"동성타워아파트(지하주차장 1~4층)",
    "lat":37.6078921572,
    "lng":127.0973200713
  },
  {
    "name":"다우훼밀리아파트(지하주차장 1층)",
    "lat":37.6004511721,
    "lng":127.0959403083
  },
  {
    "name":"신내6단지아파트(지하주차장 1층)",
    "lat":37.6147777397,
    "lng":127.09208912
  },
  {
    "name":"신내7단지진로아파트(지하주차장 1층)",
    "lat":37.6153379616,
    "lng":127.0937168578
  },
  {
    "name":"신내8단지두산화성아파트(지하주차장 1층)",
    "lat":37.6129474821,
    "lng":127.0962050829
  },
  {
    "name":"신내9단지아파트(지하주차장 1층)",
    "lat":37.6108746487,
    "lng":127.0955979878
  },
  {
    "name":"신내11단지아파트(지하주차장 1층)",
    "lat":37.6068290828,
    "lng":127.0943394123
  },
  {
    "name":"성원아파트(지하주차장 1층)",
    "lat":37.6037639603,
    "lng":127.095476587
  },
  {
    "name":"면목역(지하 1~3층)",
    "lat":37.5883931265,
    "lng":127.0875401645
  },
  {
    "name":"건영빌라트(지하주차장 1층)",
    "lat":37.5843184318,
    "lng":127.0790062036
  },
  {
    "name":"상봉1동주민센터(지하 1층)",
    "lat":37.5998051998,
    "lng":127.0872433511
  },
  {
    "name":"상봉역(지하 1~3층)",
    "lat":37.5965501463,
    "lng":127.0855490597
  },
  {
    "name":"서울시체육회(구 : 삼미빌딩 지하주차장2~4층)",
    "lat":37.5929226269,
    "lng":127.0730159607
  },
  {
    "name":"중화문화복지센터(지하1층)",
    "lat":37.5949097326,
    "lng":127.0748756615
  },
  {
    "name":"하이텍빌딩(지하주차장 1층)",
    "lat":37.6101986035,
    "lng":127.0775708805
  },
  {
    "name":"동성4차아파트(모든 동의 지하주차장 1~3층)",
    "lat":37.607398409,
    "lng":127.0966755152
  },
  {
    "name":"동성3차아파트(모든 동의 지하주차장 1층)",
    "lat":37.6087296217,
    "lng":127.0957396567
  },
  {
    "name":"중랑구청(지하주차장 1층)",
    "lat":37.6062617689,
    "lng":127.0930484777
  },
  {
    "name":"중랑구민회관(지하주차장 1층)",
    "lat":37.5740163588,
    "lng":127.0849611772
  },
  {
    "name":"신성은하수아파트(지하주차장 1~2층)",
    "lat":37.5890840811,
    "lng":127.0732050521
  },
  {
    "name":"신우아파트101동 지하주차장(1층~3층)",
    "lat":37.5804368403,
    "lng":127.0792393111
  },
  {
    "name":"면목진로아파트(지하주차장 1~2층)",
    "lat":37.5877797608,
    "lng":127.1015601241
  },
  {
    "name":"중화건영아파트(지하주차장 1층)",
    "lat":37.6056838298,
    "lng":127.0832597526
  },
  {
    "name":"중화한신아파트(지하주차장 1~2층)",
    "lat":37.5975832498,
    "lng":127.0805816761
  },
  {
    "name":"정상빌딩(지하주차장1층)",
    "lat":37.6023484178,
    "lng":127.0777418059
  },
  {
    "name":"신도아파트(지하주차장 1층)",
    "lat":37.6166976206,
    "lng":127.0776073704
  },
  {
    "name":"우도빌딩(지하주차장 1층)",
    "lat":37.5938403276,
    "lng":127.0765163903
  },
  {
    "name":"신안1차아파트(지하주차장 1층)",
    "lat":37.6128171672,
    "lng":127.0813590723
  },
  {
    "name":"한국아파트(지하주차장 1층~3층)",
    "lat":37.6142382616,
    "lng":127.073183353
  },
  {
    "name":"극동아파트(지하주차장 1층~2층)",
    "lat":37.6143358276,
    "lng":127.076506304
  },
  {
    "name":"신원아파트(지하주차장 1~2층)",
    "lat":37.6001336734,
    "lng":127.1081637685
  },
  {
    "name":"새한아파트(모든 동의 지하주차장 1층)",
    "lat":37.606028791,
    "lng":127.1010549093
  },
  {
    "name":"금란교회(지하주차장 3~6층)",
    "lat":37.6005477338,
    "lng":127.1027726644
  },
  {
    "name":"동구햇살아파트(지하주차장1층)",
    "lat":37.5996500388,
    "lng":127.0782899687
  },
  {
    "name":"대원칸타빌아파트(지하주차장 1~2층)",
    "lat":37.5782782618,
    "lng":127.0907294463
  },
  {
    "name":"한일써너스빌(지하주차장 1~3층)",
    "lat":37.5975295249,
    "lng":127.0907542077
  },
  {
    "name":"면목5동주민센터(지하주차장 1~2층)",
    "lat":37.5857518954,
    "lng":127.0796415872
  },
  {
    "name":"면목동신성미소지움아파트(지하주차장 1~2층)",
    "lat":37.5871977339,
    "lng":127.0963456107
  },
  {
    "name":"면목본동주민센터(지하주차장 1~2층)",
    "lat":37.5872405328,
    "lng":127.0876897783
  },
  {
    "name":"청원다미소아파트(지하주차장 1층)",
    "lat":37.6021928649,
    "lng":127.0800750795
  },
  {
    "name":"경남아너스빌아파트(지하주차장 1~2층)",
    "lat":37.5749753766,
    "lng":127.0807277537
  },
  {
    "name":"서일타운(지하 1~3층)",
    "lat":37.5864915644,
    "lng":127.0944687218
  },
  {
    "name":"면목두산아파트2차(지하주차장 1~2층)",
    "lat":37.5801613224,
    "lng":127.0833797073
  },
  {
    "name":"면목두산아파트3차(지하주차장 1~2층)",
    "lat":37.5800253232,
    "lng":127.0833339236
  },
  {
    "name":"면목동2차미소지움아파트(지하주차장 1층)",
    "lat":37.5869985517,
    "lng":127.096384143
  },
  {
    "name":"건영캐스빌아파트(지하주차장 1~2층)",
    "lat":37.6031585924,
    "lng":127.0910575863
  },
  {
    "name":"면목5동공영주차장 (지하 1층)",
    "lat":37.5863575584,
    "lng":127.0802425372
  },
  {
    "name":"미영리치타운아파트(지하주차장1-2층)",
    "lat":37.5949295429,
    "lng":127.0776175646
  },
  {
    "name":"현대아이파크아파트(지하주차장 1층~2층)",
    "lat":37.6102328321,
    "lng":127.0731090084
  },
  {
    "name":"중랑해모로아파트(지하주차장 1~2층)",
    "lat":37.6025908208,
    "lng":127.1099067903
  },
  {
    "name":"금호어울림아파트2차(지하주차장 1~2층)",
    "lat":37.6021078422,
    "lng":127.1081817204
  },
  {
    "name":"까치공영주차장(지하 1층)",
    "lat":37.5834559096,
    "lng":127.0869487944
  },
  {
    "name":"금호어울림아파트1차(지하주차장 1~2층)",
    "lat":37.6021078422,
    "lng":127.1081817204
  },
  {
    "name":"청광플러스원아파트(지하주차장 1층)",
    "lat":37.602441056,
    "lng":127.080400651
  },
  {
    "name":"면목2동 공영주차장(지하 1층)",
    "lat":37.5880845962,
    "lng":127.0809972407
  },
  {
    "name":"동구햇살아파트(지하주차장 1층)",
    "lat":37.6135658107,
    "lng":127.0744397173
  },
  {
    "name":"월드메르디앙아파트(지하주차장 1층)",
    "lat":37.6130681365,
    "lng":127.0731139573
  },
  {
    "name":"중목초등학교(지하주차장 1층)",
    "lat":37.5898050046,
    "lng":127.0793258648
  },
  {
    "name":"풍림아파트(지하주차장 1~3층)",
    "lat":37.5906812994,
    "lng":127.0721315523
  },
  {
    "name":"남청파인힐아파트(지하주차장 1층 )",
    "lat":37.5882417656,
    "lng":127.0902014875
  },
  {
    "name":"면목아남리치카운티아파트(지하주차장 1층)",
    "lat":37.5893525996,
    "lng":127.0851381874
  },
  {
    "name":"면목마젤란21아파트(지하주차장 1층)",
    "lat":37.5866360631,
    "lng":127.0841759131
  },
  {
    "name":"상봉우정아파트(지하주차장 1층)",
    "lat":37.5991241314,
    "lng":127.0887885587
  },
  {
    "name":"신내12단지아파트(지하주차장 1층)",
    "lat":37.6047237442,
    "lng":127.0907944981
  },
  {
    "name":"동부아파트(지하주차장 1층)",
    "lat":37.6023645509,
    "lng":127.0940894749
  },
  {
    "name":"상봉태영데시앙아파트(지하주차장 1~2층)",
    "lat":37.6039014695,
    "lng":127.092215282
  },
  {
    "name":"한국프라우드아파트(지하주차장 1층)",
    "lat":37.5989299955,
    "lng":127.0938353484
  },
  {
    "name":"봉화산역(지하 1층)",
    "lat":37.617623896,
    "lng":127.0909233455
  },
  {
    "name":"예성그린캐슬아파트(지하주차장 1층)",
    "lat":37.5973490985,
    "lng":127.1023359549
  },
  {
    "name":"한울네세창아파트(지하주차장 1~2층)",
    "lat":37.5983758639,
    "lng":127.1062707829
  },
  {
    "name":"한일써너스빌리젠시1단지아파트(지하주차장 1~5층)",
    "lat":37.5975051163,
    "lng":127.0934209332
  },
  {
    "name":"한일써너스빌리젠시2단지아파트(지하주차장 1~5층)",
    "lat":37.5978709718,
    "lng":127.0943508067
  },
  {
    "name":"면일초등학교(지하주차장 1층)",
    "lat":37.5915399711,
    "lng":127.0988510883
  },
  {
    "name":"데시앙아파트(모든 동의 지하주차장 1층)",
    "lat":37.6108802589,
    "lng":127.1008714476
  },
  {
    "name":"우남푸르미아아파트(모든 동의 지하주차장 1층)",
    "lat":37.6062986916,
    "lng":127.0985777104
  },
  {
    "name":"경남아너스빌아파트(모든 동의 지하주차장 1층)",
    "lat":37.6038740681,
    "lng":127.0971571395
  },
  {
    "name":"벽산아파트(모든 동의 지하주차장 1층)",
    "lat":37.6033309484,
    "lng":127.1005027793
  },
  {
    "name":"대성유니드아파트(지하주차장 1층)",
    "lat":37.6026388925,
    "lng":127.0967160801
  },
  {
    "name":"석탑아파트(모든 동의 지하주차장 1층)",
    "lat":37.6036886788,
    "lng":127.1009054677
  },
  {
    "name":"영풍마드레빌(모든 동의 지하주차장 1층)",
    "lat":37.6057341981,
    "lng":127.0998009889
  },
  {
    "name":"중앙하이츠아파트(모든 동의 지하주차장 1층)",
    "lat":37.6032473665,
    "lng":127.097289371
  },
  {
    "name":"서울의료원(지하주차장 1~3층)",
    "lat":37.6128738183,
    "lng":127.096719708
  },
  {
    "name":"중곡초등학교(지하주차장 1층)",
    "lat":37.5735480592,
    "lng":127.0832274141
  },
  {
    "name":"면목동원베네스트 (지하주차장 1층)",
    "lat":37.5837110191,
    "lng":127.0842059678
  },
  {
    "name":"두산아파트(1차) (지하주차장 1층)",
    "lat":37.581632558,
    "lng":127.084164458
  },
  {
    "name":"두원아파트(지하주차장 1~2층)",
    "lat":37.5734461795,
    "lng":127.0798057382
  },
  {
    "name":"건영2차아파트(지하주차장 1층)",
    "lat":37.6021460161,
    "lng":127.096001529
  },
  {
    "name":"신아타운(지하주차장 1~4층)",
    "lat":37.6065431262,
    "lng":127.0946290557
  },
  {
    "name":"중랑구청 제2청사(지하주차장 2~4층)",
    "lat":37.6063735968,
    "lng":127.0940799807
  },
  {
    "name":"금성초등학교(지하주차장 1층)",
    "lat":37.6153848791,
    "lng":127.0892202545
  },
  {
    "name":"성원아파트(지하주차장 1~2층)",
    "lat":37.5774190055,
    "lng":127.0903141851
  },
  {
    "name":"용마금호어울림아파트(지하주차장 1~2층)",
    "lat":37.5782513372,
    "lng":127.0911366455
  },
  {
    "name":"용마동아아파트(지하주차장 1층)",
    "lat":37.5784971454,
    "lng":127.0943186671
  },
  {
    "name":"면목금호어울림아파트(각 동 지하1층)",
    "lat":37.5772735488,
    "lng":127.0897247838
  },
  {
    "name":"태능에셈빌아파트(지하주차장1-3층)",
    "lat":37.5992963107,
    "lng":127.0776307603
  },
  {
    "name":"묵동자이아파트 1단지(지하주차장 1~5층)",
    "lat":37.6151033431,
    "lng":127.0778183629
  },
  {
    "name":"묵동자이아파트 2단지(지하주차장 2~4층)",
    "lat":37.6136321499,
    "lng":127.0772579191
  },
  {
    "name":"공감대아파트(지하주차장 1~2층)",
    "lat":37.6136263758,
    "lng":127.0782187362
  },
  {
    "name":"해오름아파트(지하주차장 1층)",
    "lat":37.6131924604,
    "lng":127.0782786354
  },
  {
    "name":"SM해그린아파트(지하주차장 1층)",
    "lat":37.6134277777,
    "lng":127.0801801222
  },
  {
    "name":"금호어울림아파트(지하주차장 1층)",
    "lat":37.6122040114,
    "lng":127.0801407988
  },
  {
    "name":"세방아파트(지하주차장 1층)",
    "lat":37.6158163136,
    "lng":127.0835108694
  },
  {
    "name":"구민체육센터(지하주차장 1층)",
    "lat":37.6152522805,
    "lng":127.0875818971
  },
  {
    "name":"브라운스톤아파트(지하주차장 1~2층)",
    "lat":37.6184088057,
    "lng":127.0822677008
  },
  {
    "name":"신도주상복합아파트(지하주차장 1층)",
    "lat":37.6148891681,
    "lng":127.0767845564
  },
  {
    "name":"늘푸른동아아파트(지하주차장 1~2층)",
    "lat":37.5728251022,
    "lng":127.0803454797
  },
  {
    "name":"삼익아파트(지하주차장 1~2층)",
    "lat":37.5751126204,
    "lng":127.0796976297
  },
  {
    "name":"면목두산6단지아파트(지하주차장 1~2층)",
    "lat":37.5776971759,
    "lng":127.0806886824
  },
  {
    "name":"디아뜨갤러리(지하주차장 1~2층)",
    "lat":37.6171008076,
    "lng":127.0914327193
  },
  {
    "name":"금강리빙스텔(지하주차장 1~2층)",
    "lat":37.6164828055,
    "lng":127.0927263205
  },
  {
    "name":"신내10단지아파트(1008동) 지하주차장1층",
    "lat":37.6094671012,
    "lng":127.0955375675
  },
  {
    "name":"중흥초등학교(지하 1층)",
    "lat":37.6016119873,
    "lng":127.0838381504
  },
  {
    "name":"면목두산아파트 4단지 (지하주차장 1~3층)",
    "lat":37.5792925601,
    "lng":127.082752348
  },
  {
    "name":"신내데시앙포레 (모든 동의 지하주차장 1~3층)",
    "lat":37.6166299098,
    "lng":127.1103598736
  },
  {
    "name":"상봉프레미어스엠코(상봉이노시티) 지하주차장 3~7층",
    "lat":37.5980867468,
    "lng":127.0913233468
  },
  {
    "name":"주함해븐아파트(지하주차장 1층)",
    "lat":37.5927104358,
    "lng":127.0983742782
  },
  {
    "name":"신내우디안1단지아파트(모든 동의 지하주차장 1~3층)",
    "lat":37.6164622561,
    "lng":127.1074393625
  },
  {
    "name":"망우본동 복합청사(지하1~2층)",
    "lat":37.6006083625,
    "lng":127.1013236856
  },
  {
    "name":"중랑숲리가아파트(지하주차장 1~2층)",
    "lat":37.6015865261,
    "lng":127.1045766326
  },
  {
    "name":"중랑초등학교 공영주차장 (지하 1층)",
    "lat":37.5888466388,
    "lng":127.0764818814
  },
  {
    "name":"용마산하늘채아파트(지하주차장 1~2층)",
    "lat":37.57242463,
    "lng":127.086371542
  },
  {
    "name":"사가정 센트럴 아이파크(지하주차장 1~2층)",
    "lat":37.5832811739,
    "lng":127.0812632338
  },
  {
    "name":"한양수자인 사가정파크(지하주차장 1~2층)",
    "lat":37.5796754728,
    "lng":127.0946789224
  },
  {
    "name":"쌍용더플래티넘(지하주차장 1~3층)",
    "lat":37.5723261023,
    "lng":127.0859388074
  },
  {
    "name":"면목라온 프라이빗 아파트(지하주차장 1~ 2층)",
    "lat":37.5828972286,
    "lng":127.0782369721
  },
  {
    "name":"봉화산역 공영주차장(지하 1층)",
    "lat":37.6168802931,
    "lng":127.0934463841
  },
  {
    "name":"금강펜트리움 센트럴파크(지하 1~2층)",
    "lat":37.6098299179,
    "lng":127.1097477834
  },
  {
    "name":"금호어울림 포레스트(지하1~2층)",
    "lat":37.607306239,
    "lng":127.1101534903
  },
  {
    "name":"힐데스하임 참좋은아파트(지하1~2층)",
    "lat":37.6096693514,
    "lng":127.1054761756
  },
  {
    "name":"엘스타시온(중랑숲 시티프라디움) 아파트(지하 1~2층)",
    "lat":37.607210417,
    "lng":127.1084952296
  },
  {
    "name":"금호아파트(지하주차장 1~2층)",
    "lat":37.5999381923,
    "lng":127.1080265256
  },
  {
    "name":"용마산모아엘가파크포레 (모든 동의 지하주차장1~2층)",
    "lat":37.5858039286,
    "lng":127.095770492
  },
  {
    "name":"신내SK V1센터",
    "lat":37.6131217354,
    "lng":127.1124418997
  },
  {
    "name":"묵2동문화체육복합센터(지하주차장)",
    "lat":37.6095479398,
    "lng":127.0758734287
  },
  {
    "name":"이편한세상 화랑대아파트(지하주차장1~4층)",
    "lat":37.6147827111,
    "lng":127.0819228134
  },
  {
    "name":"한성대입구역(4호선)(지하1~2층)",
    "lat":37.5884682155,
    "lng":127.0063166848
  },
  {
    "name":"성신여대역(4호선) 지하1층",
    "lat":37.5926241626,
    "lng":127.0165538237
  },
  {
    "name":"정릉길지하보도(지하1층)",
    "lat":37.6078197162,
    "lng":127.0026189558
  },
  {
    "name":"하월곡아남아파트지하주차장 1층",
    "lat":37.6060385942,
    "lng":127.0344944669
  },
  {
    "name":"돈암현대아파트(103,104,105동)지하주차장(1층)",
    "lat":37.6040508977,
    "lng":127.0270599449
  },
  {
    "name":"고려대학교 안암병원 지하주차장 B2,B3",
    "lat":37.5864971629,
    "lng":127.0274524969
  },
  {
    "name":"석관동 삼성아파트 지하주차장 1층",
    "lat":37.610024345,
    "lng":127.0658816974
  },
  {
    "name":"석관동 중앙하이츠 지하주차장(지하1~2층)",
    "lat":37.6107902251,
    "lng":127.0667339989
  },
  {
    "name":"두산아파트(지하1층 ~지하3층)",
    "lat":37.6140633529,
    "lng":127.0671213905
  },
  {
    "name":"코오롱아파트(101,106동) 지하주차장(지하1~2층)",
    "lat":37.605945955,
    "lng":127.0664168178
  },
  {
    "name":"길음현대아파트 지하주차장(지하1층)",
    "lat":37.6084945341,
    "lng":127.0198323365
  },
  {
    "name":"풍림아파트(102,104) 지하주차장 3층",
    "lat":37.5955487825,
    "lng":127.0229492639
  },
  {
    "name":"범양아파트(102,103동) 지하주차장(지하1층~3층)",
    "lat":37.6036563605,
    "lng":127.0274933875
  },
  {
    "name":"삼성APT(102,104,106~7동)지하주차장1~3층",
    "lat":37.5989684704,
    "lng":127.022447355
  },
  {
    "name":"상월곡역(지하철6호선)(지하1~3층)",
    "lat":37.606317266,
    "lng":127.0482661195
  },
  {
    "name":"동소문송산아파트 101동 지하주차장(지하1~3층)",
    "lat":37.5919945261,
    "lng":127.0099514644
  },
  {
    "name":"한성여자고등학교 지하주차장",
    "lat":37.582462285,
    "lng":127.0114570443
  },
  {
    "name":"한진한신아파트 지하주차장 (지하1층 ~ 지하6층)",
    "lat":37.5910917346,
    "lng":127.0070466652
  },
  {
    "name":"삼선동코오롱아파트(101~105동)지하주차장(지하2층)",
    "lat":37.5905165056,
    "lng":127.0137944556
  },
  {
    "name":"길음역(지하1~3층)",
    "lat":37.6030262088,
    "lng":127.0246719755
  },
  {
    "name":"길음삼부컨비니언아파트 지하주차장(지하1층)",
    "lat":37.6033068915,
    "lng":127.0241019403
  },
  {
    "name":"월곡역사(6호선)(지하1~3층)",
    "lat":37.6016273835,
    "lng":127.0412222406
  },
  {
    "name":"하월곡동신아파트지하주차장 1층~2층",
    "lat":37.6042804576,
    "lng":127.0362985435
  },
  {
    "name":"동아에코빌아파트 지하주차장(지하1~3층)",
    "lat":37.6071259914,
    "lng":127.0459952134
  },
  {
    "name":"이마트미아점 지하주차장(지하2층)",
    "lat":37.6108501922,
    "lng":127.0300224451
  },
  {
    "name":"안암역 지하 1~3층",
    "lat":37.5863472499,
    "lng":127.0292666573
  },
  {
    "name":"보문역 대합실 지하1~3층",
    "lat":37.5853993811,
    "lng":127.0194707727
  },
  {
    "name":"시립성북청소년센터(지하 1층~2층)",
    "lat":37.6175663582,
    "lng":127.0559933344
  },
  {
    "name":"돌곶이역(6호선)(지하1~2층) 5,,6,7,8 출구",
    "lat":37.6106465893,
    "lng":127.0564465261
  },
  {
    "name":"삼성래미안아파트(109,110,114제외)지하1층~3층",
    "lat":37.6003708989,
    "lng":127.031378261
  },
  {
    "name":"샹그레빌아파트 지하주차장(지하1~3층)",
    "lat":37.5956204019,
    "lng":127.041001845
  },
  {
    "name":"길음지하보도(지하1층)",
    "lat":37.6027802413,
    "lng":127.0227455706
  },
  {
    "name":"장위1동주민센터 지하주차장(지하2층)",
    "lat":37.6139757619,
    "lng":127.0436035377
  },
  {
    "name":"성북구청(지하1~4층)",
    "lat":37.589355818,
    "lng":127.0164745769
  },
  {
    "name":"월곡래미안루나밸리아파트 지하주차장(지하1~3층)",
    "lat":37.6001041884,
    "lng":127.0419181519
  },
  {
    "name":"석관동 래미안아파트(101,110동) 지하주차장1~2층",
    "lat":37.6089530654,
    "lng":127.0537996675
  },
  {
    "name":"고려대학교 이과대학 하나스퀘어 지하주차장(지하2~3층)",
    "lat":37.585998012,
    "lng":127.028400937
  },
  {
    "name":"안암래미안아파트 101동 지하주차장 1층",
    "lat":37.588897064,
    "lng":127.0234493425
  },
  {
    "name":"정릉중앙하이츠빌2단지아파트(201~9동) 지하주차장2층",
    "lat":37.6042325995,
    "lng":127.0106827641
  },
  {
    "name":"장월SH빌1단지아파트 지하주차장(지하 1층~2층)",
    "lat":37.6219567919,
    "lng":127.0478308164
  },
  {
    "name":"정릉우성아파트 104동 지하주차장 1층~3층",
    "lat":37.6007584702,
    "lng":127.0150203415
  },
  {
    "name":"길음동동부센트레빌아파트 지하주차장(지하1~4층)",
    "lat":37.608858568,
    "lng":127.0238474545
  },
  {
    "name":"성북힐스테이트 지하주차장(지하1~4층)",
    "lat":37.6064924063,
    "lng":127.030418051
  },
  {
    "name":"동원베네스트아파트(1개동구성)지하주차장(지하1~2층)",
    "lat":37.6121027572,
    "lng":127.0588547176
  },
  {
    "name":"장위우방아파트(1개동구성)지하주차장(지하1~2층)",
    "lat":37.6103050453,
    "lng":127.0555147243
  },
  {
    "name":"장위초등학교(운동장지하)주차장",
    "lat":37.6113656968,
    "lng":127.0496910634
  },
  {
    "name":"정릉힐스테이트3차 아파트 지하주차장(지하1층-지하2층)",
    "lat":37.6139496081,
    "lng":127.0064568076
  },
  {
    "name":"정릉대우아파트 지하주차장(지하1층~지하3층)",
    "lat":37.6174207176,
    "lng":127.0039046582
  },
  {
    "name":"월곡래미안월곡아파트지하주차장 1층~3층",
    "lat":37.6100311507,
    "lng":127.0357964091
  },
  {
    "name":"월곡두산위브아파트지하주차장 1층~3층",
    "lat":37.606259589,
    "lng":127.0370045554
  },
  {
    "name":"월곡두산위브아파트(임대) 지하주차장 1층~3층",
    "lat":37.606259589,
    "lng":127.0370045554
  },
  {
    "name":"월곡3에스에이치빌지하주차장 1층~2층",
    "lat":37.6100311507,
    "lng":127.0357964091
  },
  {
    "name":"한신휴아파트(122동~124동) 지하2층주차장",
    "lat":37.5956645088,
    "lng":127.0142729532
  },
  {
    "name":"길음래미안1차아파트 지하주차장(지하1~3층)",
    "lat":37.6052305333,
    "lng":127.0197815831
  },
  {
    "name":"길음래미안2차아파트 지하주차장(지하2층)",
    "lat":37.6090840432,
    "lng":127.0205294052
  },
  {
    "name":"길음래미안 3차아파트 지하주차장(지하1~3층)",
    "lat":37.6045838143,
    "lng":127.0234038801
  },
  {
    "name":"길음뉴타운대림아파트-e편한세상 지하주차장(지하1~3층)",
    "lat":37.6122417177,
    "lng":127.0177911214
  },
  {
    "name":"길음뉴타운푸르지오2,3단지아파트지하주차장(지하1~6층)",
    "lat":37.6122904988,
    "lng":127.0173955981
  },
  {
    "name":"길음뉴타운래미안8단지아파트 4차지하주차장(지하1~3층)",
    "lat":37.605746916,
    "lng":127.0218948415
  },
  {
    "name":"길음뉴타운래미안9단지아파트5차지하주차장(지하1~3층)",
    "lat":37.6047561809,
    "lng":127.0196891882
  },
  {
    "name":"길음뉴타운위브7단지아파트 지하주차장(지하1~4층)",
    "lat":37.6086652307,
    "lng":127.0192567537
  },
  {
    "name":"꿈의숲대명루첸아파트 지하주차장(지하 2층~3층)",
    "lat":37.6200787182,
    "lng":127.0465300991
  },
  {
    "name":"참누리아파트 지하주차장(지하 1층~2층)",
    "lat":37.6227267003,
    "lng":127.0497876757
  },
  {
    "name":"삼익아파트 지하주차장(지하 1층~3층)",
    "lat":37.6134168345,
    "lng":127.0573944427
  },
  {
    "name":"유타쇼핑몰  지하주차장1~6층",
    "lat":37.5926753141,
    "lng":127.0170492204
  },
  {
    "name":"길음 서희스타힐스 지하주차장(지하1~6층)",
    "lat":37.6054936352,
    "lng":127.027140221
  },
  {
    "name":"정릉성원아파트(정릉3동)지하주차장(지하1~2층)",
    "lat":37.6066593514,
    "lng":127.0088393318
  },
  {
    "name":"대동아파트(정릉3동)지하주차장(지하1층)",
    "lat":37.6077990534,
    "lng":127.0058780564
  },
  {
    "name":"정릉중앙하이츠빌1단지(101~105동) 지하주차장3층",
    "lat":37.6021378326,
    "lng":127.0102018241
  },
  {
    "name":"정릉2차대주피오레아파트(201~2동)지하주차장1~2층",
    "lat":37.6013299412,
    "lng":127.0092342977
  },
  {
    "name":"푸른마을동아아파트(101~107동)지하1~3층주차장",
    "lat":37.6065454306,
    "lng":127.01500406
  },
  {
    "name":"정릉푸르지오아파트(101~7동)지하주차장(지하1~2층)",
    "lat":37.606322953,
    "lng":127.0106588417
  },
  {
    "name":"정릉쌍용아파트 지하주차장 1층~2층",
    "lat":37.5991985599,
    "lng":127.0185978756
  },
  {
    "name":"길음뉴타운10단지라온유아파트 지하주차장 2층~4층",
    "lat":37.6031608557,
    "lng":127.0176429673
  },
  {
    "name":"정릉힐스테이트 지하주차장 1층~2층",
    "lat":37.6031864046,
    "lng":127.0157761111
  },
  {
    "name":"정릉스카이쌍용아파트 지하주차장 1층~3층",
    "lat":37.6001186886,
    "lng":127.016231945
  },
  {
    "name":"데시앙 1단지 지하주차장 2층\/ 2단지 지하주차장 1층",
    "lat":37.6061506757,
    "lng":127.0151243376
  },
  {
    "name":"길음뉴타운 경남아너스빌 지하주차장 1층~3층",
    "lat":37.603190814,
    "lng":127.0174710278
  },
  {
    "name":"꿈의숲푸르지오아파트지하주차장 1층~2층",
    "lat":37.6099858784,
    "lng":127.0384531265
  },
  {
    "name":"동일하이빌뉴시티 지하주차장(지하3~6층)",
    "lat":37.6047441515,
    "lng":127.0312272239
  },
  {
    "name":"이마트 하월곡점 지하주차장(지하4~6층)",
    "lat":37.6047441515,
    "lng":127.0312272239
  },
  {
    "name":"래미안라센트아파트(111동,112동 제외)지하2층",
    "lat":37.6002551825,
    "lng":127.0386082676
  },
  {
    "name":"종암에스케이아파트(107동 제외)지하2층",
    "lat":37.5998888169,
    "lng":127.0375209376
  },
  {
    "name":"종암2차SKVIEW(전동)지하주차장1층~2층",
    "lat":37.6014460511,
    "lng":127.0353175625
  },
  {
    "name":"래미안세레니티아파트(전동) 지하1층~2층",
    "lat":37.5995774534,
    "lng":127.0319913382
  },
  {
    "name":"종암우림카이저팰리스아파트(전동)지하1층~지하3층",
    "lat":37.6018686607,
    "lng":127.0333870803
  },
  {
    "name":"일신건영휴먼빌 지하주차장 (지하1층 ~ 지하3층)",
    "lat":37.6005327856,
    "lng":127.0134921969
  },
  {
    "name":"브라운스톤 돈암아파트 지하주차장 (지하1층 ~ 지하5층",
    "lat":37.5990955424,
    "lng":127.0179312683
  },
  {
    "name":"돈암힐스테이트 지하주차장 (지하1층 ~ 지하3층)",
    "lat":37.5986543862,
    "lng":127.0145333896
  },
  {
    "name":"돈암더샵 지하주차장 (지하1층 ~ 지하3층)",
    "lat":37.5978479807,
    "lng":127.0105489718
  },
  {
    "name":"동소문현대아파트 지하 주차장 (지하1층)",
    "lat":37.5974758838,
    "lng":127.0125008215
  },
  {
    "name":"돈암신일해피트리아파트 지하주차장 (지하1층 ~ 지하3층",
    "lat":37.5980341297,
    "lng":127.011152602
  },
  {
    "name":"월곡2에스에이치빌 지하주차장(지하1~2층)",
    "lat":37.59764037,
    "lng":127.0413287384
  },
  {
    "name":"월곡갑을명가 지하주차장(지하3,4)",
    "lat":37.6033225686,
    "lng":127.0419544884
  },
  {
    "name":"수산동양빌 지하주차장(지하1~2층)",
    "lat":37.6041000657,
    "lng":127.0383100498
  },
  {
    "name":"삼선현대힐스테이트(101~109동) 지하주차장 1층",
    "lat":37.5826630384,
    "lng":127.0147181326
  },
  {
    "name":"삼선SK VIEW아파트(101~107동)지하주차장 1층",
    "lat":37.5867832007,
    "lng":127.0110219975
  },
  {
    "name":"삼선푸르지오아파트(103~124동) 지하주차장 1층",
    "lat":37.5842978258,
    "lng":127.0133345583
  },
  {
    "name":"신동아파밀리에아파트(103동,104동) 지하3~지하2층",
    "lat":37.6078382658,
    "lng":127.0536289416
  },
  {
    "name":"그린빌아파트 지하주차장(지하1층)",
    "lat":37.6176757552,
    "lng":127.043023738
  },
  {
    "name":"보문아이파크아파트(103,104동) 지하주차장 1,2층",
    "lat":37.5855618229,
    "lng":127.0172379149
  },
  {
    "name":"보문하우스토리(101동) 지하주차장 1~4층",
    "lat":37.5839344875,
    "lng":127.0209256973
  },
  {
    "name":"이편한세상보문(201동) 지하주차장 2층",
    "lat":37.5820274421,
    "lng":127.0154635632
  },
  {
    "name":"정릉꿈에그린아파트(101~105,201~203동)주차장",
    "lat":37.6016651656,
    "lng":127.0113381737
  },
  {
    "name":"길음역금호어울림센터힐(102,105동)지하주차장1~4층",
    "lat":37.60085873,
    "lng":127.0237580694
  },
  {
    "name":"아남아파트(101동) 지하주차장 1층",
    "lat":37.5807953973,
    "lng":127.0176008579
  },
  {
    "name":"돈암코오롱하늘채아파트 지하주차장 (지하1층 ~ 지하4층",
    "lat":37.5991449195,
    "lng":127.0137383835
  },
  {
    "name":"정릉e편한세상1차아파트 지하주차장(지하1~3층)",
    "lat":37.6154628946,
    "lng":127.0092019214
  },
  {
    "name":"우이신설경전철 북한산보국문역(지하1층~지하2층)",
    "lat":37.6120258965,
    "lng":127.008460182
  },
  {
    "name":"성신여자대학교교직원주차장(수정관) 지하 2층",
    "lat":37.5912883888,
    "lng":127.0209656243
  },
  {
    "name":"브라운스톤동선아파트 지하1층 주차장",
    "lat":37.5966998931,
    "lng":127.0138438904
  },
  {
    "name":"정릉풍림아이원아파트(지하주차장)(지하1~2층)",
    "lat":37.6173562484,
    "lng":127.0075548292
  },
  {
    "name":"꿈의숲코오롱하늘채아파트 지하주차장(지하 1층~3층)",
    "lat":37.6190421032,
    "lng":127.0459599694
  },
  {
    "name":"래미안장위포레카운티아파트 지하주차장(지하 1층~2층)",
    "lat":37.6186083186,
    "lng":127.0525034094
  },
  {
    "name":"래미안장위퍼스트하이아파트 지하주차장(지하 1층~2층)",
    "lat":37.6199899455,
    "lng":127.0527963666
  },
  {
    "name":"꿈의숲 아이파크 지하주차장(지하2층)",
    "lat":37.6197888888,
    "lng":127.048598911
  },
  {
    "name":"길음뉴타운11단지 롯데캐슬골든힐스 지하주차장(1~4층)",
    "lat":37.6087333212,
    "lng":127.0156942602
  },
  {
    "name":"정릉2차e편한세상아파트지하주차장(지하1~3층)",
    "lat":37.599086959,
    "lng":127.01886503
  },
  {
    "name":"고려대역(지하1~4층)",
    "lat":37.5906497268,
    "lng":127.0362849152
  },
  {
    "name":"보문파크뷰자이아파트(106-115동)지하주차장 6층",
    "lat":37.5806591376,
    "lng":127.0178379882
  },
  {
    "name":"가든타워 빌딩(지하 2~6층 주차장) (번1동)",
    "lat":37.6371787385,
    "lng":127.0251186466
  },
  {
    "name":"평강교회 지하2층 교육시설(번1동)",
    "lat":37.6372784036,
    "lng":127.0301697162
  },
  {
    "name":"운산빌딩-미아동(지하1층)",
    "lat":37.6316887253,
    "lng":127.0243060522
  },
  {
    "name":"교보생명 빌딩(지하 2~3층 주차장) (번1동)",
    "lat":37.6384200506,
    "lng":127.0265223389
  },
  {
    "name":"쌍용아파트 지하1층 주차장(번1동)",
    "lat":37.6376184004,
    "lng":127.0322318397
  },
  {
    "name":"통일교육원-인수동(지하1층)",
    "lat":37.6424338808,
    "lng":127.0026020391
  },
  {
    "name":"삼양동 주민센터 주차장(지하 1층)",
    "lat":37.6249672211,
    "lng":127.0198901067
  },
  {
    "name":"삼성아파트(지하2층 주차장)(번1동)",
    "lat":37.6412432448,
    "lng":127.0315449967
  },
  {
    "name":"성북강북교육지원청(송중동)(지하1층)",
    "lat":37.6236293506,
    "lng":127.0280944658
  },
  {
    "name":"해모로아파트-번3동(지하2층~지하3층)",
    "lat":37.6262484082,
    "lng":127.0368827185
  },
  {
    "name":"미성빌딩-미아동(지하1층 ~ 지하 2층)",
    "lat":37.6255915238,
    "lng":127.0266885489
  },
  {
    "name":"풍양빌딩(송중동)(지하1~3층)",
    "lat":37.6210354776,
    "lng":127.0284776585
  },
  {
    "name":"무등양말빌딩(송중동)(지하2층)",
    "lat":37.62079122,
    "lng":127.0286039586
  },
  {
    "name":"강북구청(지하1층)-수유3동",
    "lat":37.6393304582,
    "lng":127.0256586588
  },
  {
    "name":"수유역(지하1층)-수유3동",
    "lat":37.6379657288,
    "lng":127.0255929579
  },
  {
    "name":"현대크리스탈(지하2~3층)-수유3동",
    "lat":37.6384284966,
    "lng":127.0242772931
  },
  {
    "name":"효성인텔리언빌딩(지하2층)-수유3동",
    "lat":37.6364640951,
    "lng":127.0235171517
  },
  {
    "name":"성실교회(지하2~3층 주차장)-수유3동",
    "lat":37.6400033854,
    "lng":127.0227884261
  },
  {
    "name":"미아역-미아동(지하1층~2층)",
    "lat":37.626342321,
    "lng":127.0261687768
  },
  {
    "name":"두원프라자아파트 지하 3~5층 주차장 - 송천동",
    "lat":37.6227592299,
    "lng":127.0270023472
  },
  {
    "name":"금호어울림아파트 주차장(102동 지하2층)-번2동",
    "lat":37.631427504,
    "lng":127.0363720023
  },
  {
    "name":"오동공원 현대홈타운 아파트(지하2층)-번2동",
    "lat":37.6317833792,
    "lng":127.0361655537
  },
  {
    "name":"미아사거리역(송중동)(지하1층)",
    "lat":37.6132098048,
    "lng":127.0303070646
  },
  {
    "name":"벽산아파트(지하1층 주차장) (수유2동)",
    "lat":37.6412960811,
    "lng":127.0202174175
  },
  {
    "name":"현대아파트(지하2, 3층 주차장) (수유2동)",
    "lat":37.6455607847,
    "lng":127.0187352929
  },
  {
    "name":"래미안수유아파트(지하2, 3층 주차장) (수유2동)",
    "lat":37.6446512119,
    "lng":127.0194086402
  },
  {
    "name":"삼호아파트(수유프라자) 지하2,3층 주차장 (수유1동)",
    "lat":37.6317028667,
    "lng":127.0237601785
  },
  {
    "name":"대림쇼핑아파트(수유주상복합) 지하2층 주차장(수유1동)",
    "lat":37.6318000655,
    "lng":127.022320916
  },
  {
    "name":"현대성우아파트 지하 2~4 층 주차장 - 송천동",
    "lat":37.6170636186,
    "lng":127.0222030802
  },
  {
    "name":"우이동 푸르지오 아파트(지하2층) - 우이동",
    "lat":37.6549417584,
    "lng":127.0116955168
  },
  {
    "name":"삼각산아이원아파트 주차장(104,105,106-지하3)",
    "lat":37.6160836266,
    "lng":127.0171301705
  },
  {
    "name":"한일유엔아이아파트(송중동)(지하1~2층)",
    "lat":37.6153815434,
    "lng":127.0371430928
  },
  {
    "name":"경남아너스빌아파트(송중동)(지하3~4층)",
    "lat":37.6148480799,
    "lng":127.0351822702
  },
  {
    "name":"대한병원-인수동(지하1층)",
    "lat":37.6354019136,
    "lng":127.0227835912
  },
  {
    "name":"수유동 이테크벨리오피스텔 지하2,3층 주차장-수유1동",
    "lat":37.6337033038,
    "lng":127.0229104916
  },
  {
    "name":"삼양동벽산아파트 101동 P1 주차장(지하2층~4층)",
    "lat":37.6198222598,
    "lng":127.010171854
  },
  {
    "name":"기산그린아파트-번3동(지하1층)",
    "lat":37.6279936801,
    "lng":127.0438017766
  },
  {
    "name":"동문아파트-번3동(지하2층)",
    "lat":37.6237891091,
    "lng":127.0377476769
  },
  {
    "name":"솔그린아파트(지하 2층) (번3동)",
    "lat":37.6267691374,
    "lng":127.039773611
  },
  {
    "name":"한양아파트-번3동(지하1층)",
    "lat":37.6272279023,
    "lng":127.0406125912
  },
  {
    "name":"신원아파트-번3동(지하2층)",
    "lat":37.6258463243,
    "lng":127.043771153
  },
  {
    "name":"수유일공원 주차장-수유1동(지하 1층)",
    "lat":37.6307097246,
    "lng":127.0174193415
  },
  {
    "name":"파스칼진 빌딩(지하2층 주차장)(번1동)",
    "lat":37.6350468243,
    "lng":127.0263599927
  },
  {
    "name":"포르텔오피스텔(지하2층 주차장)(번1동)",
    "lat":37.637785359,
    "lng":127.0295599867
  },
  {
    "name":"수유역두산위브아파트1 지하1층 주차장(번1동)",
    "lat":37.6358093514,
    "lng":127.0314363817
  },
  {
    "name":"수유역두산위브아파트2 지하1층 주차장(번1동)",
    "lat":37.63590348,
    "lng":127.0311368466
  },
  {
    "name":"롯데백화점(송중동)(지하3~6층)",
    "lat":37.6145193558,
    "lng":127.0302909736
  },
  {
    "name":"삼양동 삼성레미안아파트 주차장 지하2층",
    "lat":37.6262008848,
    "lng":127.0186329538
  },
  {
    "name":"래미안 트리베라1차 아파트 주차장(삼각산동)(지하3층)",
    "lat":37.6146877454,
    "lng":127.0206078104
  },
  {
    "name":"래미안 트리베라2차 아파트(삼각산동)(지하3층)",
    "lat":37.6186417121,
    "lng":127.0201313535
  },
  {
    "name":"송천센트레빌 2차 아파트 지하 2, 3층 주차장-송천동",
    "lat":37.6125310076,
    "lng":127.0260609739
  },
  {
    "name":"미아요진아파트- 미아동(지하2층)",
    "lat":37.6337266942,
    "lng":127.0266108442
  },
  {
    "name":"현대아파트- 미아동(지하1층)",
    "lat":37.6312470658,
    "lng":127.0259274208
  },
  {
    "name":"미아신구아파트 - 미아동(지하3층)",
    "lat":37.6262277176,
    "lng":127.0305212519
  },
  {
    "name":"포엠빌아파트(지하1층)-수유3동",
    "lat":37.6404885632,
    "lng":127.0251029475
  },
  {
    "name":"삼양동벽산아파트 102동 P2 주차장(지하2~4층)",
    "lat":37.6198222598,
    "lng":127.010171854
  },
  {
    "name":"삼양동벽산아파트 104동 P3 주차장(지하2~3층)",
    "lat":37.6198222598,
    "lng":127.010171854
  },
  {
    "name":"삼양동벽산아파트 107동 P4 주차장(지하2~3층)",
    "lat":37.6198222598,
    "lng":127.010171854
  },
  {
    "name":"삼양동 벽산라이브파크아파트 주차장(P6\/111동)",
    "lat":37.6198222598,
    "lng":127.010171854
  },
  {
    "name":"삼양동벽산아파트 109동 P5 주차장(지하2~3층)",
    "lat":37.6198222598,
    "lng":127.010171854
  },
  {
    "name":"삼양동벽산아파트 112동 P7 주차장(지하2 ~ 3층)",
    "lat":37.6198222598,
    "lng":127.010171854
  },
  {
    "name":"삼양동 벽산라이브파크주차장 P8(114동)",
    "lat":37.6198222598,
    "lng":127.010171854
  },
  {
    "name":"삼양동벽산아파트 115동  P9 주차장(지하3층)",
    "lat":37.6198222598,
    "lng":127.010171854
  },
  {
    "name":"삼양동 벽산아파트 118동 P10 주차장(지하3층)",
    "lat":37.6198222598,
    "lng":127.010171854
  },
  {
    "name":"삼양동 벽산아파트 201동 주차장(지하3~4층)",
    "lat":37.6198222598,
    "lng":127.010171854
  },
  {
    "name":"삼양동 경남아너스빌아파트 주차장(지하2층)",
    "lat":37.6293792339,
    "lng":127.018437202
  },
  {
    "name":"강북우리들병원(지하1층~2층 주차장)-수유3동",
    "lat":37.6426570418,
    "lng":127.0227398837
  },
  {
    "name":"우림빌딩(지하1층)-수유3동",
    "lat":37.6418556302,
    "lng":127.0225979699
  },
  {
    "name":"우암센스뷰(지하2층) (수유3동)",
    "lat":37.6379303497,
    "lng":127.0238338763
  },
  {
    "name":"경남아너스빌(지하2층 ~ 4층)-수유3동",
    "lat":37.6381528871,
    "lng":127.0240448806
  },
  {
    "name":"두산위브트레지움아파트(삼각산동)(지하2~3층)",
    "lat":37.6185764011,
    "lng":127.0161165574
  },
  {
    "name":"삼각산아이원아파트 주차장(109,111,112-지하2)",
    "lat":37.6160836266,
    "lng":127.0171301705
  },
  {
    "name":"삼각산아이원아파트 주차장(121-지하2)",
    "lat":37.6160836266,
    "lng":127.0171301705
  },
  {
    "name":"SK북한산시티아파트(P201, 102동)(지하3~5층)",
    "lat":37.6199312184,
    "lng":127.0121069776
  },
  {
    "name":"SK북한산시티아파트(P205, 122동)(지하3층)",
    "lat":37.6199312184,
    "lng":127.0121069776
  },
  {
    "name":"SK북한산시티아파트(P206, 129동)(지하2층)",
    "lat":37.6199312184,
    "lng":127.0121069776
  },
  {
    "name":"SK북한산시티아파트(P209, 140동)(지하3층)",
    "lat":37.6199312184,
    "lng":127.0121069776
  },
  {
    "name":"sk북한산시티아파트 주차장(144,146-지하3)",
    "lat":37.6199312184,
    "lng":127.0121069776
  },
  {
    "name":"SK북한산시티아파트(P211, 147동)(지하2~3층)",
    "lat":37.6199312184,
    "lng":127.0121069776
  },
  {
    "name":"sk북한산시티아파트 주차장(148,149-지하2)",
    "lat":37.6199312184,
    "lng":127.0121069776
  },
  {
    "name":"제네스타워빌딩 지하2,3층 주차장-수유1동",
    "lat":37.6344943939,
    "lng":127.0227097845
  },
  {
    "name":"렛츠런 문화공감센터 강북 지하2~5층 주차장(번1동)",
    "lat":37.6353727035,
    "lng":127.023523299
  },
  {
    "name":"미아동복합청사-미아동(지하1층)",
    "lat":37.6270675133,
    "lng":127.0267717418
  },
  {
    "name":"트레지오(송중동)(지하2~5층)",
    "lat":37.6120400329,
    "lng":127.0305584629
  },
  {
    "name":"형인휴아름아파트(지하1층)-수유3동",
    "lat":37.6384238052,
    "lng":127.0221172945
  },
  {
    "name":"래미안수유아파트107동(지하2층 주차장) (수유2동)",
    "lat":37.6446512119,
    "lng":127.0194086402
  },
  {
    "name":"수유벽산아파트201(지하1층)-수유2동",
    "lat":37.6412960811,
    "lng":127.0202174175
  },
  {
    "name":"꿈의숲롯데캐슬아파트(송중동)(지하2~3층)",
    "lat":37.6175044908,
    "lng":127.0356590658
  },
  {
    "name":"수송초등학교(지하1 ~ 2층 주차장) (번1동)",
    "lat":37.6371547572,
    "lng":127.0327129767
  },
  {
    "name":"꿈의숲 효성해링턴플레이스 아파트(송중동)(지하2~3층)",
    "lat":37.6171511039,
    "lng":127.034934727
  },
  {
    "name":"번1동 주민센터 지하1층 주차장(번1동)",
    "lat":37.6378223363,
    "lng":127.0287871822
  },
  {
    "name":"효성네오인텔리안(지하2~5층 주차장)(번1동)",
    "lat":37.6388114682,
    "lng":127.0268744893
  },
  {
    "name":"우이신설경전철-삼양역(지하2~3)",
    "lat":37.62668625,
    "lng":127.018154025
  },
  {
    "name":"우이신설경전철-삼양사거리역(지하2~3층)",
    "lat":37.6215012839,
    "lng":127.0202422888
  },
  {
    "name":"우이신설경전철-솔샘역(지하3~4층)",
    "lat":37.6203144272,
    "lng":127.0136178846
  },
  {
    "name":"SK북한산시티아파트(P202, 107동)(지하2~3층)",
    "lat":37.6199312185,
    "lng":127.0121069776
  },
  {
    "name":"SK북한산시티아파트(P203, 113동)(지하2~3층)",
    "lat":37.6199312185,
    "lng":127.0121069776
  },
  {
    "name":"SK북한산시티아파트(P207, 135동)(지하3층)",
    "lat":37.6199312185,
    "lng":127.0121069776
  },
  {
    "name":"와이스퀘어(지하3~4층)",
    "lat":37.6136994107,
    "lng":127.0305285431
  },
  {
    "name":"칸타빌 수유팰리스(지하1~3층)-수유3동",
    "lat":37.6421745979,
    "lng":127.0254973002
  },
  {
    "name":"도봉도서관 지하 1층",
    "lat":37.6527660242,
    "lng":127.0129365154
  },
  {
    "name":"신동아 2동 아파트 지하주차장 1층",
    "lat":37.661916707,
    "lng":127.0305187069
  },
  {
    "name":"대원그린아파트 지하주차장 1층",
    "lat":37.662549626,
    "lng":127.0283351951
  },
  {
    "name":"신동아 13동 아파트 지하주차장 1층",
    "lat":37.661916707,
    "lng":127.0305187069
  },
  {
    "name":"신동아 28동 아파트 지하주차장 1층",
    "lat":37.6604329332,
    "lng":127.0275654335
  },
  {
    "name":"방학3동 주민센터 지하 1층",
    "lat":37.6591598679,
    "lng":127.0279203794
  },
  {
    "name":"신동아 17동 아파트 지하주차장 1층",
    "lat":37.661916707,
    "lng":127.0305187069
  },
  {
    "name":"신동아 30동 아파트 지하주차장 1층",
    "lat":37.6604329332,
    "lng":127.0275654335
  },
  {
    "name":"한일병원 지하 1층",
    "lat":37.644967613,
    "lng":127.0285070417
  },
  {
    "name":"금용아파트(쌍문) 지하주차장 1층",
    "lat":37.6495049776,
    "lng":127.0279074433
  },
  {
    "name":"쌍문3동 주민센터 지하 1층",
    "lat":37.6489481154,
    "lng":127.0278500113
  },
  {
    "name":"방학2동 주민센터 지하 1층",
    "lat":37.6682946478,
    "lng":127.0350245769
  },
  {
    "name":"방학1동 주민센터 지하 1층",
    "lat":37.6642028166,
    "lng":127.0407754008
  },
  {
    "name":"방학 극동아파트 지하 주차장 1~2층",
    "lat":37.6644051333,
    "lng":127.0270064119
  },
  {
    "name":"도봉구민회관 지하주차장 1층",
    "lat":37.6539794782,
    "lng":127.0381554689
  },
  {
    "name":"한양7차아파트 지하 주차장 1층",
    "lat":37.6560870701,
    "lng":127.0332155013
  },
  {
    "name":"쌍문4동 현대2차아파트 지하주차장 1층",
    "lat":37.659030507,
    "lng":127.0303784045
  },
  {
    "name":"거성학마을아파트 지하주차장 1층~2층",
    "lat":37.6669775503,
    "lng":127.0393278173
  },
  {
    "name":"백상빌딩 지하주차장 2층~3층",
    "lat":37.6534339393,
    "lng":127.0518993461
  },
  {
    "name":"신동아2단지아파트 지하 주차장 1층",
    "lat":37.6596966144,
    "lng":127.0243814283
  },
  {
    "name":"청구아파트 지하주차장 1층",
    "lat":37.65711744,
    "lng":127.0277181956
  },
  {
    "name":"우성1차아파트 지하주차장 1층~2층",
    "lat":37.6578613323,
    "lng":127.0247372699
  },
  {
    "name":"우성2차아파트 지하주차장 1층~2층",
    "lat":37.6573188998,
    "lng":127.0223269331
  },
  {
    "name":"벽산 2차 아파트 지하주차장 1층~3층",
    "lat":37.6584808348,
    "lng":127.0251380456
  },
  {
    "name":"삼성 레미안아파트(창1동) 지하주차장 1층",
    "lat":37.6502647656,
    "lng":127.0472362063
  },
  {
    "name":"한화 성원아파트(방학3동) 지하주차장 1층~2층",
    "lat":37.6617006811,
    "lng":127.031905756
  },
  {
    "name":"신동아4단지아파트 지하주차장 1층",
    "lat":37.6622920619,
    "lng":127.0299264181
  },
  {
    "name":"현대 3차아파트(쌍문1동) 지하주차장 1층",
    "lat":37.6514110117,
    "lng":127.0215268017
  },
  {
    "name":"북부교육청 지하 주차장 1층",
    "lat":37.6516833775,
    "lng":127.0432519545
  },
  {
    "name":"금용아파트(창동) 지하주차장 1층~2층",
    "lat":37.6376713193,
    "lng":127.0359682727
  },
  {
    "name":"신원에벤에셀아파트 지하주차장 1층",
    "lat":37.6575803562,
    "lng":127.0282207947
  },
  {
    "name":"미라보아파트 지하주차장 1층",
    "lat":37.6554458478,
    "lng":127.0314858928
  },
  {
    "name":"쌍문 극동아파트 지하주차장 1층",
    "lat":37.650699118,
    "lng":127.026687659
  },
  {
    "name":"염광아파트 지하주차장 1층",
    "lat":37.6486243212,
    "lng":127.02618924
  },
  {
    "name":"동아그린아파트(창5동) 지하주차장 1층",
    "lat":37.6543588653,
    "lng":127.046164352
  },
  {
    "name":"대우아파트 지하주차장 1층~2층",
    "lat":37.6430142903,
    "lng":127.0380471016
  },
  {
    "name":"성원(방학1동) 101동 아파트 지하주차장 1층",
    "lat":37.6619571861,
    "lng":127.0361999821
  },
  {
    "name":"성원(방학1동) 102동 아파트 지하주차장 1층",
    "lat":37.6619531974,
    "lng":127.0363439823
  },
  {
    "name":"방학동 도깨비시장 지하주차장 1층~2층",
    "lat":37.6644416771,
    "lng":127.0340411707
  },
  {
    "name":"방아골종합사회복지관 지하주차장 1~2층",
    "lat":37.6692496431,
    "lng":127.0326220239
  },
  {
    "name":"도봉한신아파트 지하주차장 1층~3층",
    "lat":37.6843360231,
    "lng":127.0497675385
  },
  {
    "name":"신동아타워상가아파트 지하주차장 1층~2층",
    "lat":37.6620913925,
    "lng":127.0288770167
  },
  {
    "name":"쌍문역 지하1층",
    "lat":37.6488539358,
    "lng":127.0349019054
  },
  {
    "name":"신동아5단지아파트 지하주차장 1층~2층",
    "lat":37.6635872751,
    "lng":127.0287382412
  },
  {
    "name":"동아청솔아파트 지하주차장 1층~2층",
    "lat":37.6570285454,
    "lng":127.0493995158
  },
  {
    "name":"쌍용아파트 지하주차장 1층",
    "lat":37.6602921626,
    "lng":127.0490875929
  },
  {
    "name":"대우파크빌 지하주차장 1층",
    "lat":37.6554033636,
    "lng":127.0324414234
  },
  {
    "name":"방학지하차보도 지하1층",
    "lat":37.6625129001,
    "lng":127.0444345693
  },
  {
    "name":"신창아파트 지하주차장 1층",
    "lat":37.6406438149,
    "lng":127.0409735394
  },
  {
    "name":"현대아파트(창5동) 지하주차장 1층",
    "lat":37.6561071321,
    "lng":127.0408562798
  },
  {
    "name":"도봉보건소 지하주차장 1층",
    "lat":37.6581245281,
    "lng":127.0385555485
  },
  {
    "name":"대상타운현대아파트(방학1동) 지하주차장 1층~2층",
    "lat":37.6651304146,
    "lng":127.046595777
  },
  {
    "name":"효성하이타운아파트 지하주차장 1층~2층",
    "lat":37.6610667794,
    "lng":127.032990579
  },
  {
    "name":"한양6차아파트 지하주차장 1층",
    "lat":37.6559603384,
    "lng":127.0280314948
  },
  {
    "name":"건영아파트 지하주차장 1층~2층",
    "lat":37.6409570189,
    "lng":127.0340726268
  },
  {
    "name":"창동한신아파트 지하주차장 1층~2층",
    "lat":37.6458857506,
    "lng":127.0342286631
  },
  {
    "name":"삼성래미안1단지(방학1동) 아파트 지하주차장 1층~2층",
    "lat":37.6677362554,
    "lng":127.0463321308
  },
  {
    "name":"삼성래미안2단지(방학1동) 아파트 지하주차장 1층~2층",
    "lat":37.6658971111,
    "lng":127.0455586024
  },
  {
    "name":"엘지트윈빌상가 지하주차장 3층",
    "lat":37.6591014027,
    "lng":127.0352435348
  },
  {
    "name":"이수아파트 지하주차장 1층~2층",
    "lat":37.6641761662,
    "lng":127.0448416455
  },
  {
    "name":"도봉구청 지하주차장 1층~2층",
    "lat":37.6687017319,
    "lng":127.0470067577
  },
  {
    "name":"현대4차 아파트(창4동) 지하주차장 1층~2층",
    "lat":37.6585725264,
    "lng":127.0468706011
  },
  {
    "name":"삼성래미안아파트(쌍문3동) 지하주차장 1층",
    "lat":37.6462700176,
    "lng":127.0270324176
  },
  {
    "name":"신일라이프 아파트 지하주차장 1층",
    "lat":37.6504399846,
    "lng":127.0293137928
  },
  {
    "name":"서원사회복지관 지하주차장 1층~2층",
    "lat":37.6696669286,
    "lng":127.0464592073
  },
  {
    "name":"동아에코빌아파트 지하주차장 1층~2층",
    "lat":37.6822102185,
    "lng":127.046343953
  },
  {
    "name":"신원2차아파트 지하주차장 1층",
    "lat":37.6580959557,
    "lng":127.0356671083
  },
  {
    "name":"현대2차 아파트(창4동) 지하주차장 1층~2층",
    "lat":37.6605151242,
    "lng":127.0467338693
  },
  {
    "name":"현대3차 아파트(창4동) 지하주차장 1층~2층",
    "lat":37.6605151242,
    "lng":127.0467338693
  },
  {
    "name":"럭키아파트 지하주차장 1층",
    "lat":37.6799103809,
    "lng":127.0439471112
  },
  {
    "name":"서울가든아파트 지하 1층",
    "lat":37.6871040297,
    "lng":127.0416876303
  },
  {
    "name":"도봉1동 주민센터 지하주차장 1층",
    "lat":37.6787070968,
    "lng":127.0435107741
  },
  {
    "name":"성원(창4동) 아파트 지하주차장 1층~2층",
    "lat":37.660934985,
    "lng":127.0498523845
  },
  {
    "name":"창3동주민센터 지하 1층",
    "lat":37.6381122586,
    "lng":127.0427631768
  },
  {
    "name":"쌍문e편한세상 아파트 지하주차장 1층",
    "lat":37.6500255148,
    "lng":127.0270962977
  },
  {
    "name":"북한산월드메르디앙 아파트 지하주차장 1층",
    "lat":37.653543717,
    "lng":127.0129571683
  },
  {
    "name":"방학동 동부센트레빌아파트 지하주차장 1층~2층",
    "lat":37.663041853,
    "lng":127.038990219
  },
  {
    "name":"금광포란재아파트 지하주차장 1층~2층",
    "lat":37.6648196707,
    "lng":127.0452505699
  },
  {
    "name":"북한산아이파크아파트 지하주차장 1층~2층",
    "lat":37.6590605407,
    "lng":127.0427410571
  },
  {
    "name":"삼성 래미안아파트(도봉2동) 지하주차장 1층~2층",
    "lat":37.6798669653,
    "lng":127.0475956571
  },
  {
    "name":"도봉파크빌2단지아파트 지하주차장 1층~2층",
    "lat":37.6840675881,
    "lng":127.0511568993
  },
  {
    "name":"도봉파크빌3단지아파트 지하주차장 1층~2층",
    "lat":37.6879843766,
    "lng":127.0481054311
  },
  {
    "name":"쌍문 이안아파트 지하주차장 1층",
    "lat":37.651456987,
    "lng":127.0286197253
  },
  {
    "name":"쌍문4동 주민센터 지하 1층",
    "lat":37.6564365661,
    "lng":127.0283128248
  },
  {
    "name":"한승미메이드아파트 지하주차장 1층",
    "lat":37.6330870336,
    "lng":127.0427202495
  },
  {
    "name":"초안산신도브래뉴아파트(창3동) 지하주차장 1층",
    "lat":37.6336169953,
    "lng":127.042391013
  },
  {
    "name":"동도센트리움아파트 지하주차장 1층~2층",
    "lat":37.661953794,
    "lng":127.0454605059
  },
  {
    "name":"서울북부지방법원 지하주차장 1층",
    "lat":37.6773212558,
    "lng":127.0472035134
  },
  {
    "name":"쌍문브라운스톤아파트 지하주차장 1층",
    "lat":37.6470642489,
    "lng":127.0299375941
  },
  {
    "name":"동양크레오 아파트 지하주차장 1층~2층",
    "lat":37.6648346844,
    "lng":127.0298755478
  },
  {
    "name":"방학동 ESA1단지 아파트 지하주차장 1층~3층",
    "lat":37.6689010054,
    "lng":127.0459766461
  },
  {
    "name":"방학동 ESA2단지 아파트 지하주차장 1층~3층",
    "lat":37.6661449752,
    "lng":127.0456380191
  },
  {
    "name":"방학동 ESA3단지아파트 지하주차장 1층~3층",
    "lat":37.6661541856,
    "lng":127.0450010249
  },
  {
    "name":"서울북부지방검찰청 지하주차장 1층",
    "lat":37.6766557029,
    "lng":127.0481839092
  },
  {
    "name":"북한산코오롱하늘채아파트 지하주차장 1층",
    "lat":37.6485448907,
    "lng":127.0234089827
  },
  {
    "name":"송학 휴스테이 아파트 지하주차장 1층",
    "lat":37.666933054,
    "lng":127.0358722382
  },
  {
    "name":"녹천지하차도 지하1층",
    "lat":37.6458527262,
    "lng":127.0507627673
  },
  {
    "name":"도봉한양수자인아파트 지하주차장 1층~3층",
    "lat":37.6745656818,
    "lng":127.0477213572
  },
  {
    "name":"창동지하보도 지하 1층",
    "lat":37.651783258,
    "lng":127.0490578233
  },
  {
    "name":"가인지하보도 지하1층",
    "lat":37.6596373778,
    "lng":127.044564556
  },
  {
    "name":"도봉산리베니움 지하주차장 1층",
    "lat":37.685749841,
    "lng":127.0428715724
  },
  {
    "name":"도봉산역 광역환승센터 지하주차장 1층~2층",
    "lat":37.6897620124,
    "lng":127.0449156532
  },
  {
    "name":"창제2동 제4공영주차장 지하1층",
    "lat":37.6416731045,
    "lng":127.0363207594
  },
  {
    "name":"쌍문금강아미움파크타운 지하주차장 1층~3층",
    "lat":37.6612858429,
    "lng":127.0378921612
  },
  {
    "name":"에덴아파트 지하주차장 1층",
    "lat":37.6603692068,
    "lng":127.0397959208
  },
  {
    "name":"창동신도브래뉴아파트(창5동) 지하주차장 1층~2층",
    "lat":37.6566911913,
    "lng":127.0446147359
  },
  {
    "name":"창동대동아파트 지하주차장 1층~2층",
    "lat":37.6619308636,
    "lng":127.0440859791
  },